,gb_smid,stationname,brandname,stationalias,address,cross2,cityshort,dma,state,postalcode,lat,long,has_fuel,has_power,has_diesel,has_fuel_update_date,has_power_update_date,has_diesel_update_date,avgprice,price_groups,avg_wait_time,avg_wait_time_grp,wait_observed_time,observed_date
0,159670,Abbeville Market,Dees Oil,Quick Stop,1042 MS-7,E Long St,Abbeville,Memphis,MS,38601,34.501248774033,-89.513077139854,Y,Y,Y,,,,,0.0,7.83,2,2021-09-09 14:00:00.000,2021-09-10 19:23:01.000
1,104047,CITGO,CITGO,Billbo's,10136 MS-6 W,Dummy Line Rd,Batesville,Memphis,MS,38606,34.295462507135,-90.04424571991,Y,Y,Y,2020-10-10 22:29:07.951,2020-10-10 22:29:07.951,,,0.0,21.1,2,2021-09-09 22:00:00.000,2021-09-10 19:23:01.000
2,103218,Exxon,Exxon,Bob's Express,1230 DeSoto Ave,Sasse St,Clarksdale,Memphis,MS,38614-6937,34.187330829031,-90.559614747762,Y,Y,Y,2020-10-29 04:11:41.154,2020-10-29 04:11:42.322,2020-10-29 04:11:41.689,,0.0,1.01,1,2021-09-08 23:00:00.000,2021-09-10 19:23:01.000
3,141474,Panthers Den,Dees Oil,Panthers Den,2981 CR-600,MS-370,Dumas,Memphis,MS,38625,34.640124175054,-88.842101097107,Y,Y,Y,,,,,0.0,1.0,1,2021-09-01 19:00:00.000,2021-09-10 19:23:01.000
4,107735,Marathon,Marathon,Magnolia Quick Stop,3001 US-51 S,Star Landing Rd,Hernando,Memphis,MS,38632,34.905114,-89.998112,Y,Y,Y,2020-10-20 15:40:51.323,2020-10-20 15:40:51.323,2020-10-20 15:40:51.323,,0.0,2.48,1,2021-09-09 23:00:00.000,2021-09-10 19:23:01.000
5,152702,CITGO,CITGO,,227 Martin Luther King Jr Dr,W Woodward Ave,Holly Springs,Memphis,MS,38635,34.780186,-89.451203,Y,Y,Y,2020-10-10 18:09:17.522,2020-10-10 18:09:17.522,,,0.0,11.34,2,2021-09-09 00:00:00.000,2021-09-10 19:23:01.000
6,103591,Marathon,Marathon,,165 E Van Dorn Ave,Spring St,Holly Springs,Memphis,MS,38635,34.767285721071,-89.446134567261,Y,Y,Y,2020-10-10 17:53:03.538,2020-10-10 17:53:03.538,,,0.0,1.03,1,2021-09-09 17:00:00.000,2021-09-10 19:23:01.000
7,164757,Shell,Shell,,MS-7,Mt Pleasant Rd,Holly Springs,Memphis,MS,38635,34.796969,-89.447004,Y,Y,Y,2020-10-10 17:51:12.915,2020-10-10 17:51:12.915,2020-10-10 17:51:12.915,,0.0,8.52,2,2021-09-09 16:00:00.000,2021-09-10 19:23:01.000
8,160160,BP,BP,,7074 MS-301,W Goodman Rd,Horn Lake,Memphis,MS,38637,34.963647,-90.095857,Y,Y,Y,2020-10-15 22:13:19.353,2020-10-15 22:13:20.067,,,0.0,4.54,1,2021-09-09 23:00:00.000,2021-09-10 19:23:01.000
9,101890,Murphy USA,Murphy USA,,2411 Goodman Rd W,Hurt Rd,Horn Lake,Memphis,MS,38637,34.962329,-90.032673,Y,Y,Y,2020-11-16 23:10:54.597,2020-11-16 23:10:56.392,2020-11-16 23:10:55.460,2.59,1.0,2.04,1,2021-09-09 22:00:00.000,2021-09-10 19:23:01.000
10,176703,Bucksnorts Country Store,,,5728–5730 Highway 305,Highway 305,Independence,Memphis,MS,38638,34.700991,-89.810818,Y,Y,Y,2021-05-12 20:15:18.895,,,,0.0,1.0,1,2021-09-05 23:00:00.000,2021-09-10 19:23:01.000
11,201745,Home Oil Company,,,227 Armistead St,2nd St,Lula,Memphis,MS,38644,34.454258,-90.47994,Y,Y,Y,,,,,0.0,1.74,1,2021-09-03 16:00:00.000,2021-09-10 19:23:01.000
12,97969,Dees Oil,,Central Station,806 S Central Ave,Buncomb St,New Albany,Columbus-Tupelo-West Point-Houston,MS,38652,34.482412176501,-89.014953374863,Y,Y,Y,,,,,0.0,1.0,1,2021-09-09 20:00:00.000,2021-09-10 19:23:01.000
13,25628,Flying J,Flying J,Conoco,4740 Bethel Rd,Business Center Dr,Olive Branch,Memphis,MS,38654,34.928929105248,-89.793762266636,Y,Y,Y,2020-11-13 02:23:51.872,2020-11-13 02:23:51.873,2020-11-13 02:23:51.865,2.62,1.0,1.02,1,2021-09-09 23:00:00.000,2021-09-10 19:23:01.000
14,103932,Chevron,Chevron,,502 S Lamar Blvd,University Ave,Oxford,Memphis,MS,38655,34.363955128578,-89.519530534744,Y,Y,Y,2020-11-16 16:28:14.344,2020-11-16 16:28:15.242,2020-11-16 16:28:14.792,,0.0,1.09,1,2021-09-09 23:00:00.000,2021-09-10 19:23:01.000
15,103933,Chevron,Chevron,,321 N Lamar Blvd,Jefferson Ave,Oxford,Memphis,MS,38655,34.36854877527,-89.518495202065,Y,Y,Y,2021-05-12 12:33:11.112,2020-10-10 18:19:32.538,,,0.0,1.46,1,2021-09-09 23:00:00.000,2021-09-10 19:23:01.000
16,103924,Super Dees Express,Dees Oil,,2018 University Ave,MS-7,Oxford,Memphis,MS,38655,34.361369043535,-89.502611160278,Y,Y,Y,2020-10-10 18:21:03.159,2020-10-10 18:21:03.159,,,0.0,2.11,1,2021-09-09 19:00:00.000,2021-09-10 19:23:01.000
17,122699,Coleman Brothers,,,720 S Main St,City Ave S,Ripley,Memphis,MS,38663,34.723457927479,-88.948925435543,Y,Y,Y,,,,2.79,3.0,1.81,1,2021-09-09 19:00:00.000,2021-09-10 19:23:01.000
18,192599,Haynes,,,1117 City Ave North,Market Street,Ripley,Memphis,MS,38663,34.74240595396,-88.948804736137,Y,Y,Y,2020-10-10 18:07:06.417,2020-10-10 18:07:06.417,2020-10-10 18:07:06.417,,0.0,0.1,1,2021-09-09 00:00:00.000,2021-09-10 19:23:01.000
19,167929,Tippah Lake Deli,Tippah Lake Deli,,17821 MS-15 N,CR-415,Ripley,Memphis,MS,38663,34.787153,-88.929901,Y,Y,Y,2021-05-11 17:24:35.578,2021-05-11 17:24:35.578,,,0.0,0.7,1,2021-09-06 17:00:00.000,2021-09-10 19:23:01.000
20,104077,Sunoco,Phillips 66,Senatobia Food Mart,434 W Main St,Panola St,Senatobia,Memphis,MS,38668,34.618171103533,-89.968296289444,Y,Y,Y,2020-11-18 19:26:03.647,2020-11-18 19:26:03.647,,,0.0,1.2,1,2021-09-09 21:00:00.000,2021-09-10 19:23:01.000
21,200504,Shell,Shell,Mike’s Food & Gas,3024 US-51 S,Shands Bottom Rd,Senatobia,Memphis,MS,38668,34.597431,-89.968219,Y,Y,Y,2020-11-13 18:39:55.022,2020-11-13 18:39:55.720,2020-11-13 18:39:55.403,2.69,1.0,1.83,1,2021-09-07 20:00:00.000,2021-09-10 19:23:01.000
22,108299,CITGO,CITGO,Bull Market,1325 Church Rd W ,US-51,Southaven,Memphis,MS,38671,34.93301922445,-90.012574195862,Y,Y,Y,2020-10-19 16:03:18.385,2020-10-19 16:03:18.385,2020-10-19 16:03:18.385,2.69,1.0,1.02,1,2021-09-09 19:00:00.000,2021-09-10 19:23:01.000
23,100612,Valero,CITGO,,910 Goodman Rd,Swinnea Rd,Southaven,Memphis,MS,38671,34.962957210414,-89.972459077835,Y,Y,Y,2020-10-10 17:00:16.779,2020-10-10 17:00:16.779,,,0.0,1.5,1,2021-09-09 23:00:00.000,2021-09-10 19:23:01.000
24,171889,Valero,CITGO,,970 Goodman Rd E,Swinnea Rd,Southaven,Memphis,MS,38671,34.962998617337,-89.972486436318,Y,Y,Y,2020-10-10 17:00:04.042,2020-10-10 17:00:04.042,,,0.0,1.5,1,2021-09-09 23:00:00.000,2021-09-10 19:23:01.000
25,116648,Sid's Food Mart,,,7825 US-51 N,Custer Dr,Southaven,Memphis,MS,38671,34.97467382377,-90.016401708126,Y,Y,Y,2020-10-10 21:55:29.069,2020-10-10 21:55:29.068,,,0.0,1.02,1,2021-09-09 14:00:00.000,2021-09-10 19:23:01.000
26,116644,Valero,Valero,Valero,781 Stateline Rd E ,Greenbrook Pkwy,Southaven,Memphis,MS,38671,34.991573509918,-89.97582256794,Y,Y,Y,2020-10-31 20:43:50.895,2020-10-20 15:40:29.834,,,0.0,4.02,1,2021-09-09 23:00:00.000,2021-09-10 19:23:01.000
27,201777,Getwell Express,Exxon,Exxon,8985 Getwell Rd,State Line Rd,Southaven,Memphis,MS,38672,34.991227,-89.937183,Y,Y,Y,2020-10-23 12:03:24.844,2020-10-23 12:03:26.691,2020-10-23 12:03:25.910,,0.0,1.73,1,2021-09-09 23:00:00.000,2021-09-10 19:23:01.000
28,53779,BlueSky,,Express Shop,7030 US-72,Main St,Walnut,Memphis,MS,38683,34.951628890268,-88.900801241398,Y,Y,Y,2020-11-05 19:11:05.739,,,,0.0,12.93,2,2021-09-09 17:00:00.000,2021-09-10 19:23:01.000
29,156357,Double Quick,,,229 S Broadway,Main ,Greenville,Greenwood-Greenville,MS,38701,33.408327257716,-91.060373783112,Y,Y,Y,,,,,0.0,0.72,1,2021-09-09 14:00:00.000,2021-09-10 19:23:01.000
30,156038,Scott Petroleum,,,1011 Alexander,Edison,Greenville,Greenwood-Greenville,MS,38701,33.408134701692,-91.05103969574,Y,Y,Y,2020-11-05 18:41:28.818,2020-11-05 18:41:28.821,,,0.0,1.0,1,2021-09-09 16:00:00.000,2021-09-10 19:23:01.000
31,104906,Double Quick,,Double Quick 87,1000 S Davis Ave,White St,Cleveland,Greenwood-Greenville,MS,38732,33.732675915083,-90.716509222984,Y,Y,Y,2020-11-02 18:45:05.328,2020-11-02 18:45:05.976,,2.71,2.0,1.37,1,2021-09-09 19:00:00.000,2021-09-10 19:23:01.000
32,125954,Vowell's,,Vowell's Marketplace,207 N Davis Ave,Sunflower Rd,Cleveland,Greenwood-Greenville,MS,38732,33.746600581549,-90.716214179993,Y,Y,Y,2020-11-02 18:48:16.019,2020-11-02 18:48:17.319,,,0.0,1.23,1,2021-09-09 22:00:00.000,2021-09-10 19:23:01.000
33,105593,Scott Petroleum,,,187 N Main St,W Park Ave ,Drew,Greenwood-Greenville,MS,38737,33.812227716602,-90.527984797955,Y,Y,Y,,,,,0.0,0.67,1,2021-09-04 07:00:00.000,2021-09-10 19:23:01.000
34,104909,Double Quick,,Double Quick 78,103 US-82 W,Faisona Ave ,Indianola,Greenwood-Greenville,MS,38751,33.457846265751,-90.65092921257,Y,Y,Y,2020-10-16 10:33:19.326,2020-10-16 10:33:20.087,2020-10-16 10:33:19.686,2.91,4.0,1.02,1,2021-09-09 21:00:00.000,2021-09-10 19:23:01.000
35,99086,Dodge's Store,,,4267 US-82 W,Kuhn Rd,Leland,Greenwood-Greenville,MS,38756,33.401058342337,-90.93431532383,Y,Y,Y,2021-05-13 15:30:38.863,2020-10-11 17:30:44.213,2020-09-25 22:32:52.450,,0.0,2.02,1,2021-09-09 17:00:00.000,2021-09-10 19:23:01.000
36,170508,CITGO,CITGO,,2273 US-49W,E Quiver St Ext,Sunflower,Greenwood-Greenville,MS,38778,33.596461947524,-90.520777702332,Y,Y,Y,2020-10-19 06:33:11.593,2020-10-19 06:33:12.877,2020-10-19 06:33:12.211,,0.0,,0,,2021-09-10 19:23:01.000
37,124951,J's Mart,Dees Oil,J's Mart,2301 W Main St  ,Maynard Dr,Tupelo,Columbus-Tupelo-West Point-Houston,MS,38801,34.255585,-88.7411,Y,Y,Y,,,,,0.0,3.48,1,2021-09-09 22:00:00.000,2021-09-10 19:23:01.000
38,104138,Savings Station,,Dodge's Store,447 E Main St,E Franklin St,Tupelo,Columbus-Tupelo-West Point-Houston,MS,38801,34.257662038276,-88.697318136692,Y,Y,Y,2020-11-20 12:39:05.903,2020-11-20 12:39:07.237,,,0.0,1.0,1,2021-09-09 23:00:00.000,2021-09-10 19:23:01.000
39,190807,Walmart Neighborhood Market,,,318 S Gloster St,Carnation St,Tupelo,Columbus-Tupelo-West Point-Houston,MS,38801,34.254568,-88.715476,Y,Y,Y,2021-05-13 13:18:03.750,2021-05-13 13:18:10.001,2021-05-13 13:18:08.316,2.59,1.0,6.92,2,2021-09-09 21:00:00.000,2021-09-10 19:23:01.000
40,200883,Tiger Food Mart,Dees Oil,,60234 Hatley Rd,Hatley Rd S,Amory,Columbus-Tupelo-West Point-Houston,MS,38821,33.975659,-88.425515,Y,Y,Y,,,,,0.0,,0,,2021-09-10 19:23:01.000
41,103308,Chevron,Chevron,,985 Ripley Rd,US-45,Baldwyn,Columbus-Tupelo-West Point-Houston,MS,38824,34.523657321646,-88.654260635376,Y,Y,Y,2020-10-10 18:25:42.138,2020-10-10 18:25:42.138,2020-10-10 18:25:42.138,,0.0,6.88,2,2021-09-08 17:00:00.000,2021-09-10 19:23:01.000
42,106692,Chevron,Chevron,,459 2nd St,Mack St,Belmont,Columbus-Tupelo-West Point-Houston,MS,38827,34.518341,-88.214561,Y,Y,Y,2020-10-10 18:27:49.657,2020-10-10 18:27:49.657,,,0.0,3.11,1,2021-09-09 18:00:00.000,2021-09-10 19:23:01.000
43,106693,Express Mart Belmont,Dees Oil,,413 2nd St,Madison St,Belmont,Columbus-Tupelo-West Point-Houston,MS,38827,34.510349418423,-88.210226297379,Y,Y,Y,2020-11-23 04:15:14.016,,,,0.0,0.98,1,2021-09-09 18:00:00.000,2021-09-10 19:23:01.000
44,89854,Dees Oil,BP,,1186 MS-9,CR-278,Blue Springs,Columbus-Tupelo-West Point-Houston,MS,38828,34.403306905952,-88.873493671417,Y,Y,Y,,,,,0.0,6.19,2,2021-09-04 22:00:00.000,2021-09-10 19:23:01.000
45,53678,Corinth Express,Dees Oil,,401 S Cass St,Fillmore St,Corinth,Memphis,MS,38834,34.928920309073,-88.518540859222,Y,Y,Y,2021-05-12 17:57:01.869,2021-05-11 17:23:13.859,2021-05-12 17:57:01.869,,0.0,1.01,1,2021-09-09 22:00:00.000,2021-09-10 19:23:01.000
46,53675,Shell,Shell,Shell,100 US-72 E,Fulton Dr,Corinth,Memphis,MS,38834,34.924505,-88.522854,Y,Y,Y,2021-05-13 13:36:32.140,2021-05-11 06:48:14.616,2021-05-11 06:48:14.616,2.63,1.0,3.1,1,2021-09-09 20:00:00.000,2021-09-10 19:23:01.000
47,53679,Texaco,Texaco,,102 S Harper Rd,Proper St,Corinth,Memphis,MS,38834,34.929711961047,-88.495903015137,Y,Y,Y,2020-11-10 18:33:21.465,2020-11-10 18:33:21.465,,,0.0,2.3,1,2021-09-08 20:00:00.000,2021-09-10 19:23:01.000
48,165479,CITGO,CITGO,Aggie Mart,900 Kossuth Rd,College St,Corinth,Memphis,MS,38834,34.884188367429,-88.638768196106,Y,Y,Y,2020-10-10 17:57:47.842,2020-10-10 17:57:47.842,,,0.0,,0,,2021-09-10 19:23:01.000
49,201767,Golden Mini Mart,,,216 Front St,Davis St,Golden,Columbus-Tupelo-West Point-Houston,MS,38847,34.490074959665,-88.18963766098,Y,Y,Y,,,,,0.0,1.0,1,2021-09-01 20:00:00.000,2021-09-10 19:23:01.000
50,158627,Houston Discount Tob,Dees Oil,Houston Discount Tob,101 S  Jackson St,Madison St,Houston,Columbus-Tupelo-West Point-Houston,MS,38851,33.896503546752,-88.999981284142,Y,Y,Y,2020-10-12 16:03:38.840,2020-10-12 16:03:38.841,,2.75,2.0,0.52,1,2021-09-09 23:00:00.000,2021-09-10 19:23:01.000
51,158453,Handy Sandy,,,804 E Quitman St,Spring St,Iuka,Columbus-Tupelo-West Point-Houston,MS,38852,34.80756,-88.183777,Y,Y,Y,,,,,0.0,1.68,1,2021-09-09 21:00:00.000,2021-09-10 19:23:01.000
52,104050,CITGO,CITGO,,3425 MS-371,Spradling Rd,Mantachie,Columbus-Tupelo-West Point-Houston,MS,38855,34.354921196314,-88.469113111496,Y,Y,Y,2020-10-10 18:28:07.126,2020-10-10 18:28:07.126,,,0.0,1.17,1,2021-09-08 21:00:00.000,2021-09-10 19:23:01.000
53,199747,City Lake Grocery,76,City Lake Grocery,461 MS-9,Lake Dr,Pontotoc,Columbus-Tupelo-West Point-Houston,MS,38863,34.241732,-89.02801,Y,Y,Y,2020-10-10 22:23:46.582,2020-10-10 22:23:46.582,2020-10-10 22:23:46.582,,0.0,4.83,1,2021-09-08 18:00:00.000,2021-09-10 19:23:01.000
54,159278,Texaco,Texaco,,W Oxford St,Turnpike Rd,Pontotoc,Columbus-Tupelo-West Point-Houston,MS,38863,34.253789,-89.012679,Y,Y,Y,2020-10-10 22:23:18.594,2020-10-10 22:23:18.594,,,0.0,1.97,1,2021-09-09 21:00:00.000,2021-09-10 19:23:01.000
55,154289,Brewer Grocery,,,403 CR-855,CR-520,Shannon,Columbus-Tupelo-West Point-Houston,MS,38868,34.153925,-88.675595,Y,Y,Y,,,,,0.0,10.48,2,2021-09-08 17:00:00.000,2021-09-10 19:23:01.000
56,89855,Wild Bill's,,,460 3rd Ave,US-78,Sherman,Columbus-Tupelo-West Point-Houston,MS,38869,34.357289597783,-88.841671943665,Y,Y,Y,2020-11-21 18:36:22.053,2020-11-08 19:49:56.372,2020-11-08 19:49:56.373,2.59,1.0,27.78,2,2021-09-09 21:00:00.000,2021-09-10 19:23:01.000
57,80472,Shell,Shell,Sprint Mart,1551 Sunset Dr,Jameson Dr,Grenada,Greenwood-Greenville,MS,38901,33.782797849424,-89.831954240799,Y,Y,Y,2020-10-26 17:45:46.991,2020-10-11 18:37:37.403,2020-10-26 17:45:47.464,2.79,3.0,1.22,1,2021-09-09 19:00:00.000,2021-09-10 19:23:01.000
58,85792,Tally's Discount Tobacco Mart,,,800 Lakeview Dr,Jasper Neely Dr,Grenada,Greenwood-Greenville,MS,38901,33.769658407302,-89.795401096344,Y,Y,Y,2020-11-12 18:33:07.556,2020-11-12 18:33:08.251,,2.65,1.0,4.0,1,2021-09-09 16:00:00.000,2021-09-10 19:23:01.000
59,188155,Sayle Oil Gas Mart,,,2030 Sunset Dr,Dowdle Rd,Grenada,Greenwood-Greenville,MS,38901,33.787009380989,-89.849746942455,Y,Y,Y,2021-09-03 05:01:00.580,2021-09-03 05:00:59.233,2021-09-03 05:00:59.621,2.77,3.0,5.05,2,2021-09-09 18:00:00.000,2021-09-10 19:23:01.000
60,159441,Chevron,Chevron,,16927 Oklahoma St,Depot St,Coffeeville,Columbus-Tupelo-West Point-Houston,MS,38922,33.976851,-89.675978,Y,Y,Y,2020-10-10 22:36:03.006,2020-10-10 22:36:03.006,2020-10-10 22:36:03.006,,0.0,1.57,1,2021-09-09 23:00:00.000,2021-09-10 19:23:01.000
61,110673,330 Super Stop,,,14836 MS-330,CR-211,Coffeeville,Columbus-Tupelo-West Point-Houston,MS,38922,33.982620046355,-89.693841934204,Y,Y,Y,,,,,0.0,2.67,1,2021-09-07 19:00:00.000,2021-09-10 19:23:01.000
62,112475,Triple Stop,,,103 Bowie Ln,Carrolton Ave,Greenwood,Greenwood-Greenville,MS,38930,33.517108920228,-90.158967017996,Y,Y,Y,,,,,0.0,0.75,1,2021-09-09 15:00:00.000,2021-09-10 19:23:01.000
63,103043,Sayle Oil Co,,I-55-32 Gas Mart,28575 MS-32,I-55 ,Oakland,Columbus-Tupelo-West Point-Houston,MS,38948,34.075750132496,-89.896595478058,Y,Y,Y,2020-10-16 12:15:58.120,2020-10-20 01:54:01.906,2020-10-16 12:15:58.120,2.77,3.0,60.0,4,2021-09-06 20:00:00.000,2021-09-10 19:23:01.000
64,104043,Double Quick,,Double Quick 49,506 Hancock Ave,US-49,Tutwiler,Greenwood-Greenville,MS,38963,34.015036892197,-90.427774786949,Y,Y,Y,2020-11-10 23:21:01.337,2020-11-10 23:21:02.017,2020-11-10 23:21:01.684,,0.0,8.45,2,2021-09-09 17:00:00.000,2021-09-10 19:23:01.000
65,103295,CITGO,CITGO,,536 N Hayden St,E 1st St,Belzoni,"Jackson, MS",MS,39038,33.183479262125,-90.489481687546,Y,Y,Y,,,,,0.0,4.0,1,2021-09-08 03:00:00.000,2021-09-10 19:23:01.000
66,154414,Double Quick,,,603 Martin Luther King Dr,1st St,Belzoni,"Jackson, MS",MS,39038,33.1839,-90.489476,Y,Y,Y,,,,,0.0,1.0,1,2021-09-09 21:00:00.000,2021-09-10 19:23:01.000
67,174571,B & B Cafe,,,4934 Anding Oil City Rd,Tinsley Rd,Bentonia,"Jackson, MS",MS,39040,32.690541,-90.435618,Y,Y,Y,,,,,0.0,1.02,1,2021-08-29 22:00:00.000,2021-09-10 19:23:01.000
68,91517,CEFCO,CEFCO,,306 E Government St,Louis Wilson Dr,Brandon,"Jackson, MS",MS,39042,32.272823637417,-89.98263001442,Y,Y,Y,2021-05-20 20:09:24.904,2021-05-20 20:09:30.721,2021-05-20 20:09:28.868,2.69,1.0,5.28,2,2021-09-09 21:00:00.000,2021-09-10 19:23:01.000
69,201851,Shell,Shell,,1291 W Government St,N/A,Brandon,"Jackson, MS",MS,39042,32.282571,-90.009746,Y,Y,Y,2021-05-27 01:01:00.921,2021-05-27 01:01:00.919,2021-05-27 01:01:00.920,,0.0,1.15,1,2021-09-09 22:00:00.000,2021-09-10 19:23:01.000
70,197508,Chevron,Chevron,,1706 US-51,Yandell Rd,Canton,"Jackson, MS",MS,39046,32.512114,-90.084758,Y,Y,Y,2021-05-13 00:31:50.017,2021-05-13 00:31:54.576,,2.85,3.0,1.03,1,2021-09-08 20:00:00.000,2021-09-10 19:23:01.000
71,139547,Shell,Shell,Yandell Rd Shell,137 Yandell Rd,US-51,Canton,"Jackson, MS",MS,39046,32.51249860121,-90.082579851151,Y,Y,Y,2021-05-12 22:51:04.577,2021-05-12 22:51:05.070,,2.85,3.0,1.03,1,2021-09-09 20:00:00.000,2021-09-10 19:23:01.000
72,140036,Pure,Pure,Renfroe Store,1429 MS-25 N,Robison Rd,Carthage,"Jackson, MS",MS,39051,32.861546878216,-89.449798464775,Y,Y,Y,,,,,0.0,2.35,1,2021-09-08 13:00:00.000,2021-09-10 19:23:01.000
73,17151,Shell,Shell,Super Quick,1419 E Northside Dr,Briars Dr,Clinton,"Jackson, MS",MS,39056,32.351497431325,-90.307338237762,Y,Y,Y,2021-09-10 13:38:28.383,2021-09-10 13:38:29.649,2021-09-10 13:38:29.033,2.79,3.0,1.22,1,2021-09-09 22:00:00.000,2021-09-10 19:23:01.000
74,163306,Curb Store,,,218 E Georgetown St,JACKSON,Crystal Springs,"Jackson, MS",MS,39059,31.986420715491,-90.355221033096,Y,Y,Y,2021-05-11 15:58:32.869,,,,0.0,1.38,1,2021-09-04 22:00:00.000,2021-09-10 19:23:01.000
75,176142,Bullet's,,,326 1st St,MS-22,Flora,"Jackson, MS",MS,39071,32.541875070714,-90.312552452087,Y,Y,Y,,,,,0.0,1.25,1,2021-09-09 23:00:00.000,2021-09-10 19:23:01.000
76,157031,Kearney Park Grocery,,,751 Kearney Park Rd,Livingston Vernon Rd,Flora,"Jackson, MS",MS,39071,32.59003258367,-90.316071510315,Y,Y,Y,,,,,0.0,4.03,1,2021-09-05 17:00:00.000,2021-09-10 19:23:01.000
77,174120,J and A,,,308 1st St,Clark St,Flora,"Jackson, MS",MS,39071,32.541219,-90.313035,Y,Y,Y,,,,,0.0,9.58,2,2021-09-08 18:00:00.000,2021-09-10 19:23:01.000
78,96243,Sunoco,Sunoco,,4109 US-49 S,R T Braddy Rd,Florence,"Jackson, MS",MS,39073,32.110205093026,-90.057447552681,Y,Y,Y,2021-09-07 08:32:23.281,2021-09-07 08:32:25.376,2021-09-07 08:32:24.127,,0.0,2.0,1,2021-09-09 17:00:00.000,2021-09-10 19:23:01.000
79,103417,Chevron,Chevron,,1550 MS-35 S,I-20 ,Forest,"Jackson, MS",MS,39074,32.334269666862,-89.483771324158,Y,Y,Y,,,,2.79,3.0,0.45,1,2021-09-06 04:00:00.000,2021-09-10 19:23:01.000
80,103033,Murphy USA,Murphy USA,,1305 MS-35 S,Always Blvd,Forest,"Jackson, MS",MS,39074,32.339309,-89.484366,Y,Y,Y,2020-11-19 03:41:00.677,2020-11-19 03:41:02.108,2020-11-19 03:41:01.135,2.76,2.0,7.77,2,2021-09-09 19:00:00.000,2021-09-10 19:23:01.000
81,103415,Valero,Valero,Cappy's,234 W 3rd St,Davis St,Forest,"Jackson, MS",MS,39074,32.364221717075,-89.472366571426,Y,Y,Y,,,,2.79,3.0,1.0,1,2021-09-09 17:00:00.000,2021-09-10 19:23:01.000
82,103579,BP,BP,,685 Caldwell Dr,MS-28,Hazlehurst,"Jackson, MS",MS,39083,31.87293475922,-90.397803783417,Y,Y,Y,,,,,0.0,1.55,1,2021-09-09 16:00:00.000,2021-09-10 19:23:01.000
83,80288,Exxon,Exxon,,120 MS-12 W,MS-35 N,Kosciusko,"Jackson, MS",MS,39090-3206,33.065948,-89.591177,Y,Y,Y,,,,,0.0,14.08,2,2021-09-09 21:00:00.000,2021-09-10 19:23:01.000
84,103678,Marathon,Marathon,,98 Veterans Memorial Dr,E Jefferson St,Kosciusko,"Jackson, MS",MS,39090,33.061425,-89.573019,Y,Y,Y,,,,2.79,3.0,2.93,1,2021-09-08 22:00:00.000,2021-09-10 19:23:01.000
85,156012,M&K Convenience Store,,,24523 US-80,Main St,Lake,"Jackson, MS",MS,39092,32.345660336656,-89.326191544533,Y,Y,Y,,,,,0.0,1.0,1,2021-09-09 21:00:00.000,2021-09-10 19:23:01.000
86,104302,Exxon,Kangaroo,,100 Colony Crossing Blvd,New Mannsdale Rd,Madison,"Jackson, MS",MS,39110,32.472825361696,-90.14256477356,Y,Y,Y,2021-08-05 13:03:09.327,2021-08-05 13:03:09.327,2021-08-05 13:03:09.327,2.87,4.0,1.1,1,2021-09-09 23:00:00.000,2021-09-10 19:23:01.000
87,141272,Kroger,Kroger,,214 Hoy Rd,US-51,Madison,"Jackson, MS",MS,39110,32.464783790496,-90.107717514038,Y,Y,Y,2021-09-01 17:50:55.550,2021-09-01 17:50:55.550,2021-09-01 17:50:55.550,2.85,3.0,16.59,2,2021-09-09 19:00:00.000,2021-09-10 19:23:01.000
88,197939,Texaco,Texaco,,340 Calhoun Pkwy,Church Rd,Canton,"Jackson, MS",MS,39110,32.532208,-90.098536,Y,Y,Y,,,,2.79,3.0,1.65,1,2021-09-09 20:00:00.000,2021-09-10 19:23:01.000
89,103805,Shell,Shell,,203 Raleigh Dr,1st Ave NE,Magee,"Jackson, MS",MS,39111,31.880130468772,-89.730663299561,Y,Y,Y,,,,,0.0,1.0,1,2021-09-09 22:00:00.000,2021-09-10 19:23:01.000
90,172186,Star Food Mart,,,208 1st Ave,1st St,Magee,"Jackson, MS",MS,39111,31.874424,-89.731447,Y,Y,Y,,,,,0.0,2.37,1,2021-09-09 20:00:00.000,2021-09-10 19:23:01.000
91,103882,Chevron,Chevron,Go Mart,4 Sgt Prentiss Dr,Highland Blvd,Natchez,"Jackson, MS",MS,39120,31.5222242856,-91.389770507812,Y,Y,Y,2020-10-21 12:47:39.781,2020-10-21 12:47:39.787,2020-10-21 12:47:39.787,2.92,4.0,0.85,1,2021-09-09 00:00:00.000,2021-09-10 19:23:01.000
92,169864,Dees Oil,,Shop N Save,1 Aldrich St,Doctor M.L.K Jr St,Natchez,"Jackson, MS",MS,39120,31.561110398585,-91.396073698997,Y,Y,Y,2021-08-28 14:02:39.313,2021-08-28 14:02:39.313,,,0.0,1.95,1,2021-09-09 23:00:00.000,2021-09-10 19:23:01.000
93,163243,Zippy Food Store,,,320 N  Dr Martin Luther King Junior St,High St,Natchez,"Jackson, MS",MS,39120,31.560135,-91.397737,Y,Y,Y,2021-08-28 14:01:39.927,2021-08-28 14:01:39.927,,,0.0,11.03,2,2021-09-08 14:00:00.000,2021-09-10 19:23:01.000
94,166606,Zippy Foods,,,391 Old Washington Rd,Wilson Rd,Natchez,"Jackson, MS",MS,39120,31.56359,-91.369638,Y,Y,Y,,,,,0.0,1.0,1,2021-09-09 19:00:00.000,2021-09-10 19:23:01.000
95,166653,43 Food Mart,,,602 Franklin St,Pine St,Newhebron,"Jackson, MS",MS,39140,31.734559,-89.978263,Y,Y,Y,,,,,0.0,1.02,1,2021-09-08 18:00:00.000,2021-09-10 19:23:01.000
96,103864,Chevron,Chevron,,351 MS-43 S,I-20 ,Pelahatchie,"Jackson, MS",MS,39145,32.300355674206,-89.803125858307,Y,Y,Y,2021-05-15 18:43:56.617,2021-05-15 18:43:56.617,,,0.0,2.01,1,2021-09-09 06:00:00.000,2021-09-10 19:23:01.000
97,112762,Marathon,Marathon,Kangaroo,4850 MS-17 ,I-55 S ,Pickens,"Jackson, MS",MS,39146,32.943512,-89.97943,Y,Y,Y,,,,2.89,4.0,6.26,2,2021-09-09 17:00:00.000,2021-09-10 19:23:01.000
98,199111,Shell,Shell,,5073 MS-17,Denson Ln,Pickens,"Jackson, MS",MS,39146,32.9465149,-89.9818276,Y,Y,Y,,,,2.89,4.0,0.9,1,2021-09-09 21:00:00.000,2021-09-10 19:23:01.000
99,49498,Shell,Shell,,501 Pear Orchard,Lake Harbour Dr,Ridgeland,"Jackson, MS",MS,39157,32.413745387462,-90.123918056488,Y,Y,Y,2021-05-12 18:28:58.673,,,2.80,3.0,0.95,1,2021-09-09 23:00:00.000,2021-09-10 19:23:01.000
100,138389,One Stop,,,1075 Lake Harbour Dr,OB Curtis Dr,Ridgeland,"Jackson, MS",MS,39157,32.411722573779,-90.094918012619,Y,Y,Y,,,,,0.0,5.77,2,2021-09-09 22:00:00.000,2021-09-10 19:23:01.000
101,49501,Shell,Shell,Fleet Morris,290 US-51 S,Mobile Estates,Ridgeland,"Jackson, MS",MS,39158,32.412066757345,-90.140204429626,Y,Y,Y,,,,2.79,3.0,0.85,1,2021-09-09 23:00:00.000,2021-09-10 19:23:01.000
102,104039,Ricks Express,,,1005 US-61 N,Rosenwald Ave,Rolling Fork,"Jackson, MS",MS,39159,32.918016,-90.86704,Y,Y,Y,,,,,0.0,5.37,2,2021-09-05 17:00:00.000,2021-09-10 19:23:01.000
103,170465,CITGO,CITGO,,300 Goodrum Rd,Fisher Ferry Rd,Vicksburg,"Jackson, MS",MS,39180,32.246481022755,-90.849131047726,Y,Y,Y,2021-05-18 02:22:51.093,2019-02-13 10:33:56.018,,,0.0,17.33,2,2021-09-07 15:00:00.000,2021-09-10 19:23:01.000
104,153046,BP,BP,,MS-35,Rimmer St,Walnut Grove,"Jackson, MS",MS,39189,32.596008,-89.46319,Y,Y,Y,,,,,0.0,0.87,1,2021-09-09 19:00:00.000,2021-09-10 19:23:01.000
105,141342,Country Junction Truckstop,,,8098 Sylvarena Rd,I-55 ,Wesson,"Jackson, MS",MS,39191,31.735467210661,-90.446110367775,N,Y,Y,2021-09-02 21:46:05.736,,2021-09-02 21:46:10.460,,0.0,4.57,1,2021-09-06 19:00:00.000,2021-09-10 19:23:01.000
106,141343,East End Market,,,1187 E Railroad St,5th St,Wesson,"Jackson, MS",MS,39191,31.70677008191,-90.388405323029,Y,Y,Y,2021-09-07 12:42:08.504,2021-09-07 12:42:08.503,2021-09-07 12:42:08.504,,0.0,1.03,1,2021-09-07 23:00:00.000,2021-09-10 19:23:01.000
107,120532,Shell,Shell,,1775 Gallatin St,I-20 Frontage Rd,Jackson,"Jackson, MS",MS,39201,32.279713099452,-90.193183422089,Y,Y,Y,2021-09-01 23:04:48.798,2021-09-01 23:04:48.798,,,0.0,1.02,1,2021-09-08 05:00:00.000,2021-09-10 19:23:01.000
108,49481,Shell,Shell,FleetWay,455 Daniel Lake Blvd,Frontage Rd,Jackson,"Jackson, MS",MS,39204,32.251801060795,-90.214839577674,Y,Y,Y,2021-06-13 02:54:43.004,2021-06-13 02:54:43.004,2021-06-13 02:54:43.004,,0.0,60.0,4,2021-09-09 16:00:00.000,2021-09-10 19:23:01.000
109,111352,Fuelway,,,1601 S Gallatin St,Dory St,Jackson,"Jackson, MS",MS,39204,32.283032916711,-90.19331485033,Y,Y,Y,2021-05-12 18:53:25.684,,,,0.0,3.57,1,2021-09-07 17:00:00.000,2021-09-10 19:23:01.000
110,104318,Valero,Valero,,1675 Raymond Rd ,Robinson Rd,Jackson,"Jackson, MS",MS,39204,32.278991068684,-90.25972366333,Y,Y,Y,2021-06-03 23:08:23.358,2021-06-03 23:08:23.359,2021-06-03 23:08:23.359,,0.0,1.78,1,2021-09-09 22:00:00.000,2021-09-10 19:23:01.000
111,49476,Shell,Shell,,4301 N State St,Meadowbrook Rd,Jackson,"Jackson, MS",MS,39206,32.350486843292,-90.175765156746,Y,Y,Y,2021-05-12 15:53:06.991,2021-05-12 15:53:06.991,,2.89,4.0,2.04,1,2021-09-09 20:00:00.000,2021-09-10 19:23:01.000
112,49485,Shell,Shell,Sprint-Mart,1015 E Northside Dr,Office Park Dr ,Jackson,"Jackson, MS",MS,39206,32.355539670549,-90.154001712799,Y,Y,Y,2021-06-14 11:17:10.324,2021-06-14 11:17:11.990,,2.79,3.0,16.44,2,2021-09-09 22:00:00.000,2021-09-10 19:23:01.000
113,150110,Allen's Supermarket,,,Whitfield Rd,Colinwood Ln,Pearl,"Jackson, MS",MS,39208,32.225378,-90.031064,Y,Y,Y,,,,,0.0,1.65,1,2021-09-09 21:00:00.000,2021-09-10 19:23:01.000
114,151319,Stop & Save,,,936 S Pearson Rd,Clearmont Rd,Pearl,"Jackson, MS",MS,39208,32.249935,-90.13163,Y,Y,Y,2021-06-01 22:17:55.579,2021-06-01 22:17:57.537,2021-06-01 22:17:57.795,,0.0,2.01,1,2021-09-09 21:00:00.000,2021-09-10 19:23:01.000
115,111211,Eagle,,,3207 W Capitol St,Ellis Ave,Jackson,"Jackson, MS",MS,39209,32.321805003187,-90.227478146553,Y,Y,Y,,,,,0.0,1.02,1,2021-09-09 17:00:00.000,2021-09-10 19:23:01.000
116,155953,Express Fuel,,,5308 Clinton Blvd,Flag Chapel Rd,Jackson,"Jackson, MS",MS,39209,32.332742,-90.266021,Y,Y,Y,,,,,0.0,0.09,1,2021-09-09 21:00:00.000,2021-09-10 19:23:01.000
117,111341,CITGO,CITGO,,737 W McDowell Rd,Woodbine St,Jackson,"Jackson, MS",MS,39212,32.268233,-90.228809,Y,Y,Y,2021-05-12 15:48:52.023,2021-05-12 15:48:52.023,,,0.0,1.0,1,2021-09-09 17:00:00.000,2021-09-10 19:23:01.000
118,156001,Shell,Shell,,992 McCluer Rd,Forest Hill Rd,Jackson,"Jackson, MS",MS,39212,32.239728,-90.266082,Y,Y,Y,2021-05-14 16:20:31.487,,,,0.0,4.77,1,2021-09-06 16:00:00.000,2021-09-10 19:23:01.000
119,175491,P & R Food Mart,,,3376 Medgar Evers Blvd,Summit Dr,Jackson,"Jackson, MS",MS,39213,32.337765157618,-90.21071434021,Y,Y,Y,,,,,0.0,0.35,1,2021-09-07 18:00:00.000,2021-09-10 19:23:01.000
120,156775,Shell,Shell,,3680 W Northside Dr,Boling ,Jackson,"Jackson, MS",MS,39213,32.35625565373,-90.238233804703,Y,Y,Y,,,,2.89,4.0,11.81,2,2021-09-09 17:00:00.000,2021-09-10 19:23:01.000
121,156375,Texaco,Texaco,,4414 Medgar Evers Blvd,Sunset Dr,Jackson,"Jackson, MS",MS,39213,32.348406718486,-90.223138332367,Y,Y,Y,2021-05-12 15:52:32.624,2021-05-12 15:52:32.624,,,0.0,6.72,2,2021-09-09 11:00:00.000,2021-09-10 19:23:01.000
122,96277,Fill Up,Chevron,Fill Up,760 US-49 S,Lodge St,Richland,"Jackson, MS",MS,39218,32.229770573062,-90.160213708878,Y,Y,Y,2021-09-06 12:02:40.586,2021-09-06 12:02:42.593,2021-09-06 12:02:41.993,,0.0,1.02,1,2021-09-09 21:00:00.000,2021-09-10 19:23:01.000
123,91518,Texaco,CEFCO,CEFCO,1281 US-49 S,Cleary Rd,Richland,"Jackson, MS",MS,39218,32.208706,-90.14982,N,Y,N,2021-09-02 00:30:58.277,2021-09-02 00:30:58.277,2021-09-02 00:30:58.277,,0.0,1.01,1,2021-09-09 21:00:00.000,2021-09-10 19:23:01.000
124,116069,Byram Gas,,Byram Gas,7360 Siwell Rd,Byram Pkwy,Byram,"Jackson, MS",MS,39272,32.189266402856,-90.265029072762,Y,Y,N,2021-09-07 00:08:06.471,2021-09-07 00:08:08.162,2021-08-31 18:19:17.590,2.77,3.0,1.02,1,2021-09-09 23:00:00.000,2021-09-10 19:23:01.000
125,89208,Chevron,Chevron,Bypass One Stop,3200 Causeyville Rd,US-45,Meridian,Meridian,MS,39301,32.329606384487,-88.661942481995,Y,Y,Y,,,,3.04,5.0,6.85,2,2021-09-09 18:00:00.000,2021-09-10 19:23:01.000
126,53724,Shell,Shell,,1020 MS-39 N,I-20,Meridian,Meridian,MS,39301,32.368435562306,-88.674967288971,Y,Y,Y,,,,3.04,5.0,20.83,2,2021-09-09 22:00:00.000,2021-09-10 19:23:01.000
127,103841,Chevron,Chevron,,2239 Russell Mt Gilead Rd,I-20,Meridian,Meridian,MS,39301,32.394536634784,-88.578002750874,Y,Y,Y,,,,,0.0,1.7,1,2021-09-08 02:00:00.000,2021-09-10 19:23:01.000
128,103858,El Cheapo's,El Cheapo,,1450 MS-19 S,MS-496,Meridian,Meridian,MS,39301,32.355476228728,-88.612761497498,Y,Y,Y,,,,,0.0,1.02,1,2021-09-09 13:00:00.000,2021-09-10 19:23:01.000
129,103854,Food Mart,,,4610 8th St,47th Ave,Meridian,Meridian,MS,39301,32.364734638683,-88.724920749664,Y,Y,Y,,,,,0.0,1.68,1,2021-09-09 20:00:00.000,2021-09-10 19:23:01.000
130,103840,Shell,Shell,,2406 MS-19 S,Old MS-19 SE,Meridian,Meridian,MS,39301,32.330005274938,-88.570811748505,Y,Y,Y,,,,,0.0,1.32,1,2021-09-09 11:00:00.000,2021-09-10 19:23:01.000
131,108345,Williams Grocery,,Williams Country Exp,1734 US-80,Blue Top Rd,Meridian,Meridian,MS,39301,32.401108848113,-88.599500656128,Y,Y,Y,,,,,0.0,7.51,2,2021-09-06 01:00:00.000,2021-09-10 19:23:01.000
132,103861,Pure,Pure,College Park Quick ,905 MS-19 N,Old US-80,Meridian,Meridian,MS,39307,32.365837,-88.73377,Y,Y,Y,,,,,0.0,1.0,1,2021-09-09 20:00:00.000,2021-09-10 19:23:01.000
133,159341,Crazy K's,,,US-45,Boykin Dr,Buckatunna,Hattiesburg-Laurel,MS,39322,31.552994,-88.531072,Y,Y,Y,2021-06-14 16:58:24.644,2021-06-14 16:58:26.201,2021-06-14 16:58:25.411,,0.0,1.05,1,2021-09-09 23:00:00.000,2021-09-10 19:23:01.000
134,133924,Excel,,,15507 MS-15,E 9th St,Decatur,Meridian,MS,39327,32.441082144129,-89.106947779655,Y,Y,Y,,,,,0.0,24.38,2,2021-09-09 22:00:00.000,2021-09-10 19:23:01.000
135,150260,Pure,Pure,Town & Country,300 Main St,Jackson St,DeKalb,Meridian,MS,39328,32.767645,-88.650746,Y,Y,Y,,,,,0.0,1.02,1,2021-09-09 02:00:00.000,2021-09-10 19:23:01.000
136,156289,Hickory Quik Mart,,,18168 US-80,College St,Hickory,Meridian,MS,39332,32.317611653006,-89.02571439743,Y,Y,Y,,,,,0.0,60.0,4,2021-09-07 14:00:00.000,2021-09-10 19:23:01.000
137,103852,Texaco,CEFCO,CEFCO 0501,9733 Old US-45 N,York Rd (US-45),Lauderdale,Meridian,MS,39335,32.520618231836,-88.515359759331,Y,Y,Y,2021-05-13 12:27:39.797,2021-05-13 12:27:39.797,2021-05-13 12:27:39.797,,0.0,19.0,2,2021-09-09 19:00:00.000,2021-09-10 19:23:01.000
138,154415,Chesney Grocery,,,5913 MS-494,Little Rock County Line Rd,Little Rock,Meridian,MS,39337,32.525891,-89.025849,Y,Y,Y,,,,,0.0,6.08,2,2021-09-08 21:00:00.000,2021-09-10 19:23:01.000
139,49489,Texaco,Shell,East Main Texaco,590 E Main St,McCullough Rd,Louisville,Columbus-Tupelo-West Point-Houston,MS,39339,33.124687,-89.027755,Y,Y,Y,2020-11-22 19:20:37.609,2020-11-22 19:20:36.695,2020-11-22 19:20:38.192,,0.0,1.13,1,2021-09-07 00:00:00.000,2021-09-10 19:23:01.000
140,103389,Fair Oil,,West Main Station,320 W Main St,N Spring Ave,Louisville,Columbus-Tupelo-West Point-Houston,MS,39339,33.123700512139,-89.057064056396,Y,Y,Y,,,,,0.0,1.02,1,2021-09-09 23:00:00.000,2021-09-10 19:23:01.000
141,153500,Warrior One Stop,,,13867 MS-397,Palmer Rd,Louisville,Columbus-Tupelo-West Point-Houston,MS,39339,32.980804151256,-88.903813362122,Y,Y,Y,,,,,0.0,1.0,1,2021-09-04 01:00:00.000,2021-09-10 19:23:01.000
142,200878,Sanco,Dees Oil,,807 S Jefferson,East South St,Macon,Columbus-Tupelo-West Point-Houston,MS,39341,33.102883,-88.561292,Y,Y,Y,,,,,0.0,9.04,2,2021-09-08 23:00:00.000,2021-09-10 19:23:01.000
143,132742,Bobby's Country Store,,,11110 MS-16 E,MS-482,Philadelphia,Meridian,MS,39350,32.768057714704,-89.04542863369,Y,Y,Y,,,,,0.0,1.0,1,2021-09-08 12:00:00.000,2021-09-10 19:23:01.000
144,103964,Marathon,Marathon,,12650 MS-16 W,Blackjack Rd,Philadelphia,Meridian,MS,39350,32.777482,-89.23336,Y,Y,Y,,,,,0.0,5.7,2,2021-09-09 23:00:00.000,2021-09-10 19:23:01.000
145,143049,Preston General Store,,,5529 MS-21 S,MS-397,Preston,Meridian,MS,39354,32.882736188848,-88.829339146614,Y,Y,Y,,,,,0.0,1.0,1,2021-09-02 00:00:00.000,2021-09-10 19:23:01.000
146,103851,Five Star Food Mart,Shell,,57 Will Garrett Rd,I 20-59,Toomsuba,Meridian,MS,39364,32.415812,-88.505833,Y,Y,Y,2018-10-20 00:59:51.957,2018-10-20 00:59:51.955,2018-10-20 00:59:51.957,,0.0,1.0,1,2021-09-07 11:00:00.000,2021-09-10 19:23:01.000
147,103029,Murphy USA,Murphy USA,,1350-A Azalea Dr,Sullivan Dr,Waynesboro,Hattiesburg-Laurel,MS,39367,31.687971,-88.631778,Y,Y,Y,2020-10-26 10:36:30.945,2020-10-26 10:36:30.223,2020-10-26 10:36:30.613,2.64,1.0,0.83,1,2021-09-09 13:00:00.000,2021-09-10 19:23:01.000
148,53702,Stuckey's,,,6733 US-49 N,Classic Dr,Hattiesburg,Hattiesburg-Laurel,MS,39401,31.359317288535,-89.349746704102,Y,Y,Y,,,,2.65,1.0,1.6,1,2021-09-09 22:00:00.000,2021-09-10 19:23:01.000
149,137735,Jr Food Mart,,Store 115,5316 Old MS-42,Glendale Ave,Hattiesburg,Hattiesburg-Laurel,MS,39401,31.342238565088,-89.306573867798,Y,Y,Y,,,,2.76,2.0,1.02,1,2021-09-09 23:00:00.000,2021-09-10 19:23:01.000
150,196588,T & D Mini Market,,,2200 Glendale Ave,Monroe Rd,Hattiesburg,Hattiesburg-Laurel,MS,39401,31.359958596478,-89.300436973571,Y,Y,Y,,,,,0.0,4.03,1,2021-09-09 22:00:00.000,2021-09-10 19:23:01.000
151,103560,Exxon,Exxon,,394 CR-218,CR-200,Corinth,Tampa-St. Petersburg(Sarasota),MS,33834,34.929944177725,-88.448824882507,Y,Y,Y,2020-10-10 18:01:39.737,2020-10-10 18:01:39.737,,,0.0,1.02,1,2021-09-09 22:00:00.000,2021-09-10 19:23:01.000
152,141480,Ashland Quick Stop,Dees Oil,Ashland Quick Stop,16700 Boundary Dr,Bright Blvd,Ashland,Memphis,MS,38603,34.840169543178,-89.186338484287,Y,Y,Y,,,,,0.0,10.17,2,2021-09-04 21:00:00.000,2021-09-10 19:23:01.000
153,103293,Circle K,Circle K,,100 US-51 N,US-278,Batesville,Memphis,MS,38606,34.311773404458,-89.943780899048,Y,Y,Y,2020-10-10 22:28:20.265,2020-10-10 22:28:20.265,2020-10-10 22:28:20.265,2.69,1.0,1.0,1,2021-09-09 22:00:00.000,2021-09-10 19:23:01.000
154,103149,BP,BP,,525 HIGHWAY 309 S,Two Stakes Dr,Byhalia,Memphis,MS,38611,34.857774,-89.68847,Y,Y,Y,2020-10-10 17:31:55.877,2020-10-10 17:31:55.877,2020-10-10 17:31:55.877,,0.0,0.47,1,2021-09-07 13:00:00.000,2021-09-10 19:23:01.000
155,92788,CITGO,CITGO,Bull Market,714 S State St,Washington Ave,Clarksdale,Memphis,MS,38614  ,34.188216100162,-90.581025481224,Y,Y,Y,2020-10-29 04:13:46.094,2020-10-29 04:13:47.362,2020-10-29 04:13:46.712,,0.0,16.31,2,2021-09-09 19:00:00.000,2021-09-10 19:23:01.000
156,193525,Great River Road Country Store,,,3915 MS-1,Bobo-Rena Lara Rd,Rena Lara,Memphis,MS,38614,34.154935499124,-90.772228091955,Y,Y,Y,,,,,0.0,7.96,2,2021-09-03 22:00:00.000,2021-09-10 19:23:01.000
157,105906,Valero,Valero,In A Hurry,29598 US-51,Abe Chapel Rd,Como,Memphis,MS,38619,34.540612667553,-89.96060103178,Y,Y,Y,2020-10-10 18:13:31.939,2020-10-10 18:13:31.940,,,0.0,5.6,2,2021-08-30 22:00:00.000,2021-09-10 19:23:01.000
158,103585,Chevron,Chevron,Smart's Grocery,6780 Holly Springs Rd,Smith Rd,Hernando,Memphis,MS,38632,34.798989612634,-89.870095252991,Y,Y,Y,2020-10-16 21:40:09.809,2020-10-16 21:40:09.810,,,0.0,5.88,2,2021-09-09 15:00:00.000,2021-09-10 19:23:01.000
159,113831,Exxon,Exxon,I22 Truck Stop,43 Spruce St,MS-178,Hickory Flat,Memphis,MS,38633,34.61767,-89.20581,Y,Y,Y,2020-11-03 06:14:53.024,2020-11-03 06:14:53.025,2020-11-03 06:14:53.025,,0.0,16.08,2,2021-09-07 20:00:00.000,2021-09-10 19:23:01.000
160,170975,Two Brothers,,,480 MS-178 E,E Van Dorn Ave,Holly Springs,Memphis,MS,38635,34.766938,-89.435701,Y,Y,Y,2020-10-14 20:28:33.709,2020-10-14 20:28:33.709,,,0.0,1.24,1,2021-08-28 16:00:00.000,2021-09-10 19:23:01.000
161,176633,Time Saver,,Shell Gas,2969 Nail Rd W,Tulane Rd,Horn Lake,Memphis,MS,38637,34.947633233252,-90.042642868042,Y,Y,Y,2020-10-14 05:23:39.436,2020-10-14 05:23:39.438,2020-10-14 05:23:39.438,,0.0,4.2,1,2021-09-09 14:00:00.000,2021-09-10 19:23:01.000
162,97960,Eagle,,Poolville Quick Stop,1350 MS-30 W,CR-51,New Albany,Columbus-Tupelo-West Point-Houston,MS,38650,34.46759310761,-89.12286400795,Y,Y,Y,2021-05-12 17:45:23.993,2021-05-12 17:45:23.993,2021-05-12 17:45:23.993,,0.0,3.43,1,2021-09-09 22:00:00.000,2021-09-10 19:23:01.000
163,53730,New Albany Quick Mart,Pure,,722 E Bankhead St,MS-15,New Albany,Columbus-Tupelo-West Point-Houston,MS,38652,34.481691405338,-89.000329971313,Y,Y,Y,,,,2.75,2.0,1.48,1,2021-09-09 23:00:00.000,2021-09-10 19:23:01.000
164,53734,Shell,Shell,,239 MS-30 W,US-78,New Albany,Columbus-Tupelo-West Point-Houston,MS,38652,34.49711366457,-89.033675193787,Y,Y,Y,2020-11-15 18:21:13.755,2020-11-15 18:21:13.755,,,0.0,8.43,2,2021-09-09 02:00:00.000,2021-09-10 19:23:01.000
165,53739,Valero,Valero,,7590 Hacks Cross Rd,Ridgeway Industrial Rd,Olive Branch,Memphis,MS,38654,34.970304666218,-89.79606628418,Y,Y,Y,2020-11-02 01:18:20.406,2020-11-02 01:18:20.406,2020-11-02 01:18:20.406,2.89,4.0,,0,,2021-09-10 19:23:01.000
166,87201,Valero,Valero,S & H Grocery,4949 Bethel Rd,MS-178,Olive Branch,Memphis,MS,38654,34.932082731351,-89.795181155205,Y,Y,Y,2020-10-26 23:07:54.439,2020-10-26 23:07:56.054,2020-10-26 23:07:55.437,,0.0,1.57,1,2021-09-09 22:00:00.000,2021-09-10 19:23:01.000
167,135914,Brothers Market,,,7149 MS-178,Old Craft Rd,Olive Branch,Memphis,MS,38654,34.987700215888,-89.863219410181,Y,Y,Y,2020-11-19 11:24:52.017,2020-11-19 11:24:52.018,,,0.0,1.93,1,2021-09-09 21:00:00.000,2021-09-10 19:23:01.000
168,103938,Chevron,Chevron,,2625 Jackson Ave W,W Oxford Loop,Oxford,Memphis,MS,38655,34.361918150458,-89.569451808929,Y,Y,Y,2020-10-11 11:03:57.266,2020-10-11 11:04:03.048,2020-10-11 11:03:58.701,,0.0,0.47,1,2021-09-09 23:00:00.000,2021-09-10 19:23:01.000
169,107674,Brittany Store,,,1903 Jackson Ave W,Heritage Dr,Oxford,Memphis,MS,38655,34.363911,-89.556962,Y,Y,Y,2020-11-24 15:31:43.900,,,,0.0,2.17,1,2021-09-09 23:00:00.000,2021-09-10 19:23:01.000
170,103925,Oxford Spot,Dees Oil,Oxford Spot,1438 N Lamar Blvd,Molly Barr Rd,Oxford,Memphis,MS,38655,34.385606030251,-89.506108760834,Y,Y,Y,,,,,0.0,1.68,1,2021-09-09 23:00:00.000,2021-09-10 19:23:01.000
171,116742,Joe Joe's Travel Center,Dees Oil,Joe Joe's Travel Center,4101 MS-178 W,N Red Banks Rd ,Red Banks,Memphis,MS,38661,34.828132399063,-89.566069543362,Y,Y,Y,2020-10-16 18:13:33.604,2020-10-16 18:13:34.173,2020-11-15 16:12:58.543,,0.0,6.32,2,2021-09-08 21:00:00.000,2021-09-10 19:23:01.000
172,116746,Valero,Texaco,,4056 MS-178 W,N Red Banks Rd,Red Banks,Memphis,MS,38661,34.828408717212,-89.564355611801,Y,Y,Y,2020-11-03 06:36:17.012,2020-11-03 06:36:17.015,2020-11-03 06:36:17.014,,0.0,10.67,2,2021-09-09 21:00:00.000,2021-09-10 19:23:01.000
173,104032,Texaco,Texaco,Willingham Service,100 Cotton Gin Rd,S Main St,Ripley,Memphis,MS,38663,34.722333606055,-88.947852551937,Y,Y,Y,2021-05-11 20:57:11.752,2021-05-11 20:57:11.752,2021-05-11 20:57:11.752,,0.0,1.0,1,2021-09-09 21:00:00.000,2021-09-10 19:23:01.000
174,49502,Exxon,Exxon,,5911 Casino Strip Resort Blvd,Fitzgerald's Blvd,Robinsonville,Memphis,MS,38664,34.8175732688,-90.33100605011,Y,Y,Y,2020-10-11 22:12:33.472,2020-10-11 22:12:34.778,2020-10-11 22:12:34.146,,0.0,1.02,1,2021-09-02 21:00:00.000,2021-09-10 19:23:01.000
175,83931,Exxon,Exxon,,2244 Casino Strip Resort Blvd,Perry Rd,Robinsonville,Memphis,MS,38664,34.816340126018,-90.395529270172,Y,Y,Y,2020-11-08 14:46:09.801,2020-11-08 14:46:10.581,,,0.0,3.7,1,2021-09-07 20:00:00.000,2021-09-10 19:23:01.000
176,83930,Exxon,Mobil,,13336 US-61 N,Harrah's Parkway South Ext,Robinsonville,Memphis,MS,38664-9798,34.836485017304,-90.27597784996,Y,Y,Y,2020-10-12 18:31:22.602,2020-10-12 18:31:24.372,2020-10-12 18:31:23.664,,0.0,27.79,2,2021-09-07 16:00:00.000,2021-09-10 19:23:01.000
177,172484,Discount Food Mart,,,573 W Main St,West St,Senatobia,Memphis,MS,38668,34.61718,-89.96982,Y,Y,Y,,,,,0.0,29.93,2,2021-09-09 01:00:00.000,2021-09-10 19:23:01.000
178,191909,Senatobia Express,Dees Oil,,503 E Main St,Norfleet Dr,Senatobia,Memphis,MS,38668,34.619259,-89.953999,Y,Y,Y,2020-10-24 14:29:49.437,,,,0.0,0.99,1,2021-09-09 22:00:00.000,2021-09-10 19:23:01.000
179,53759,Shell,Shell,,446 W Church Rd,Venture Dr,Southaven,Memphis,MS,38671,34.934057114732,-89.998278021812,Y,Y,Y,2020-11-20 18:24:23.275,2020-11-20 18:24:24.643,2020-11-20 18:24:23.906,2.69,1.0,3.23,1,2021-09-09 21:00:00.000,2021-09-10 19:23:01.000
180,103140,Exxon,Exxon,Tiger Mart,9039 US-51 N,Stateline Rd W,Southaven,Memphis,MS,38671-1230,34.992223926851,-90.023222565651,Y,Y,Y,2020-10-20 15:40:03.760,2020-10-20 15:40:03.761,,,0.0,1.24,1,2021-09-09 23:00:00.000,2021-09-10 19:23:01.000
181,53632,Mobil,Mobil,Circle K,1185 MS-6 E ,Medical Center Dr,Batesville,Memphis,MS,38606,34.310369678535,-89.908010959625,Y,Y,Y,2020-11-23 16:45:52.847,2020-11-09 16:46:05.406,2020-11-09 16:46:04.973,2.69,1.0,2.14,1,2021-09-09 21:00:00.000,2021-09-10 19:23:01.000
182,194896,Gas Mart,,,309 MS-6 W,Bates St,Batesville,Memphis,MS,38606,34.311823030478,-89.945744276046,Y,Y,Y,,,,,0.0,0.25,1,2021-09-09 20:00:00.000,2021-09-10 19:23:01.000
183,103296,Sunoco,Sunoco,Batesville Food Mart,725 MS-6 E,Lakewood Dr,Batesville,Memphis,MS,38606,34.310339547856,-89.928653240204,Y,Y,Y,2020-10-30 22:51:41.494,2020-10-30 22:51:41.493,2020-10-30 22:51:41.494,,0.0,0.3,1,2021-09-09 23:00:00.000,2021-09-10 19:23:01.000
184,161341,Terza One Stop,Dees Oil,Terza One Stop,22023 MS-6,Terza Rd,Batesville,Memphis,MS,38606,34.32426,-89.843042,Y,Y,Y,,,,,0.0,1.44,1,2021-09-09 21:00:00.000,2021-09-10 19:23:01.000
185,92812,Murphy USA,Murphy USA,,1002 S State St,Field Rd,Clarksdale,Memphis,MS,38614,34.182695,-90.59141,Y,Y,Y,2020-10-29 04:11:21.861,2020-10-29 04:11:23.332,2020-10-29 13:28:46.000,,0.0,2.35,1,2021-09-08 05:00:00.000,2021-09-10 19:23:01.000
186,103558,Double Quick,,Double Quick 102,1410 W 2nd,Lee Dr,Clarksdale,Memphis,MS,38614,34.20039684233,-90.606426000595,Y,Y,Y,,,,,0.0,7.25,2,2021-09-09 16:00:00.000,2021-09-10 19:23:01.000
187,200881,Sam's County Line,Dees Oil,,2149 Walhill Rd,Tate Marhsall Rd,Coldwater,Memphis,MS,38618,34.712764,-89.722752,Y,Y,Y,,,,,0.0,,0,,2021-09-10 19:23:01.000
188,104056,CITGO,CITGO,,199 Malone Rd N,Byhalia Rd,Hernando,Memphis,MS,38632,34.860330760272,-89.918986558914,Y,Y,Y,2020-10-10 17:08:20.706,2020-10-10 17:08:20.706,,,0.0,1.01,1,2021-09-08 23:00:00.000,2021-09-10 19:23:01.000
189,140954,CITGO,CITGO,RC's Country Store,5380 MS-305 S,Fox Gate Dr,Hernando,Memphis,MS,38632-9331,34.782503711547,-89.808007478714,Y,Y,Y,2021-05-13 00:13:43.188,2021-05-13 00:13:43.188,,,0.0,0.4,1,2021-09-09 22:00:00.000,2021-09-10 19:23:01.000
190,140953,CITGO,CITGO,Sid's One Stop,9670 MS-306,MS-305,Independence,Memphis,MS,38638,34.699208,-89.813224,Y,Y,Y,2020-10-10 18:10:19.718,2020-10-10 18:10:19.718,2020-10-10 18:10:19.718,,0.0,4.72,1,2021-09-08 12:00:00.000,2021-09-10 19:23:01.000
191,193213,Shell,Shell,J & J One Stop,361 Hwy 301 N,I-69,Lake Cormorant,Memphis,MS,38641,34.865391309525,-90.147537589073,Y,Y,Y,2020-10-31 19:29:29.289,2020-10-31 19:29:30.254,2020-10-31 19:29:29.771,2.79,3.0,60.0,4,2021-09-09 13:00:00.000,2021-09-10 19:23:01.000
192,125952,Valero,Valero,Kangaroo Express,217 MS-3,Lamar St,Marks,Memphis,MS,38646,34.259157,-90.27389,Y,Y,Y,2020-10-10 22:29:38.281,2020-10-10 22:29:38.281,2020-10-10 22:29:38.281,2.76,2.0,8.37,2,2021-09-08 23:00:00.000,2021-09-10 19:23:01.000
193,147172,Shell,Shell,,5337 US-72,Coopwood Rd,Mount Pleasant,Memphis,MS,38649,34.959780282022,-89.528532028198,Y,Y,Y,2020-11-02 14:36:44.958,2020-11-02 14:36:45.654,2020-11-02 14:36:45.287,,0.0,24.22,2,2021-09-09 12:00:00.000,2021-09-10 19:23:01.000
194,40658,Shell,Shell,Circle K,7450 Goodman Rd,Enterprise Dr,Olive Branch,Memphis,MS,38654,34.962535699952,-89.85690549016,Y,Y,Y,2020-11-13 02:22:13.588,2020-11-13 02:22:13.588,2020-11-13 02:22:13.585,2.59,1.0,1.02,1,2021-09-09 21:00:00.000,2021-09-10 19:23:01.000
195,86161,Zip Trip,,,6805 MS-305,Highland St,Olive Branch,Memphis,MS,38654,34.959417575514,-89.830688238144,Y,Y,Y,,,,,0.0,2.34,1,2021-09-09 23:00:00.000,2021-09-10 19:23:01.000
196,202011,Exxon,Exxon,,8280 Polk Ln,Polk Ln Cv,Olive Branch,Memphis,MS,38654,34.981017,-89.77708,Y,Y,Y,2020-11-09 15:48:23.238,2020-11-09 15:48:23.237,2020-11-09 15:48:23.238,,0.0,7.07,2,2021-09-09 14:00:00.000,2021-09-10 19:23:01.000
197,200910,Stateline Quick Mart,76,,10015 Stateline Rd,Alexander Rd,Olive Branch,Memphis,MS,38654,34.948528540213,-89.841153950345,Y,Y,Y,2020-10-10 17:27:27.545,2020-10-10 17:27:27.545,2020-10-10 17:27:27.545,,0.0,,0,,2021-09-10 19:23:01.000
198,103940,3 Way Grocery,76,3 Way,1500 Old MS-7 N,Molly Barr Rd,Oxford,Memphis,MS,38655,34.386294,-89.506087,Y,Y,Y,2020-11-22 02:07:33.792,2020-11-22 02:07:34.676,,,0.0,22.02,2,2021-09-09 16:00:00.000,2021-09-10 19:23:01.000
199,132512,Chevron,Chevron,,43 MS-6 W,CR-307,Oxford,Memphis,MS,38655,34.360052943532,-89.581017494202,Y,Y,Y,2020-10-11 11:05:01.106,2020-10-11 11:05:02.072,,,0.0,2.88,1,2021-09-09 22:00:00.000,2021-09-10 19:23:01.000
200,103923,CITGO,CITGO,Little John's,3 CR-215,MS-30,Oxford,Memphis,MS,38655,34.386421,-89.472624,Y,Y,Y,2020-11-16 19:26:59.852,2020-10-10 18:19:58.766,2020-10-10 18:19:58.766,,0.0,0.28,1,2021-09-08 23:00:00.000,2021-09-10 19:23:01.000
201,103921,Exxon,Exxon,,104 MS-334,Sheila Dr,Oxford,Memphis,MS,38655,34.352303,-89.497365,Y,Y,Y,2020-10-13 00:38:30.255,2020-10-13 00:38:30.254,2020-10-13 00:38:30.254,2.84,3.0,1.73,1,2021-09-09 11:00:00.000,2021-09-10 19:23:01.000
202,103927,Shell,Shell,,825 College Hill Rd,McElroy Dr,Oxford,Memphis,MS,38655,34.379646,-89.54312,Y,Y,Y,2020-10-10 18:18:02.482,2020-10-10 18:18:02.482,2020-10-10 18:18:02.482,,0.0,7.63,2,2021-09-09 22:00:00.000,2021-09-10 19:23:01.000
203,104030,76 Food Mart,76,,2001 City Ave N,Kingsley Rd,Ripley,Memphis,MS,38663,34.758241724382,-88.940505981445,Y,Y,Y,2020-10-10 17:55:34.434,2020-10-10 17:55:34.434,2020-10-10 17:55:34.434,,0.0,4.93,1,2021-09-06 18:00:00.000,2021-09-10 19:23:01.000
204,156239,Orman`s,Dees Oil,Orman's,865 Ashland Rd,Hill Rd,Ripley,Memphis,MS,38663,34.728465,-88.985774,Y,Y,Y,,,,,0.0,5.12,2,2021-09-07 13:00:00.000,2021-09-10 19:23:01.000
205,154002,O'Neal's Food Mart,,,3484 MS-4,Mustang Dr,Sarah,Memphis,MS,38665,34.611954,-90.146668,Y,Y,Y,,,,,0.0,17.33,2,2021-08-30 11:00:00.000,2021-09-10 19:23:01.000
206,131943,Chevron,Chevron,,27789 MS-6,Blackjack Rd,Batesville,Memphis,MS,38666,34.340956,-89.745576,Y,Y,Y,2020-10-10 18:17:30.569,2020-10-10 18:17:30.569,,,0.0,2.07,1,2021-09-09 22:00:00.000,2021-09-10 19:23:01.000
207,102982,Murphy USA,Murphy USA,,203 Wilson Dr,N Panola St,Senatobia,Memphis,MS,38668,34.628097,-89.970178,Y,Y,Y,2020-11-01 17:20:57.403,2020-11-01 17:20:54.647,2020-09-17 20:16:09.000,2.49,1.0,7.65,2,2021-09-09 23:00:00.000,2021-09-10 19:23:01.000
208,116647,Valero,Valero,,1513 Main St,Whitworth St,Southaven,Memphis,MS,38671,34.991595483547,-90.016897916794,Y,Y,Y,2020-10-20 15:40:16.507,2020-10-20 15:40:16.508,,,0.0,1.85,1,2021-09-09 23:00:00.000,2021-09-10 19:23:01.000
209,175432,Marathon,Marathon,,7660 Airways Blvd,Clarington Dr,Southaven,Memphis,MS,38671,34.971957495952,-89.98957157135,Y,Y,Y,2020-10-20 15:42:14.858,2020-10-20 15:42:14.859,,,0.0,1.02,1,2021-09-09 19:00:00.000,2021-09-10 19:23:01.000
210,165065,Mapco,,,1280 Church Rd W,US-51 N,Southaven,Memphis,MS,38671,34.93423889149,-90.012853145599,Y,Y,Y,2020-11-25 07:10:06.664,2020-11-25 07:10:06.664,2020-11-25 07:10:06.663,,0.0,2.02,1,2021-09-09 23:00:00.000,2021-09-10 19:23:01.000
211,199313,Shell,Shell,,6929 Poplar Corner Rd,Goodman Rd,Walls,Memphis,MS,38680,34.961961,-90.114487,Y,Y,Y,2020-10-31 13:12:45.670,2020-10-31 13:12:45.670,2020-10-31 13:12:45.669,2.64,1.0,4.09,1,2021-09-09 16:00:00.000,2021-09-10 19:23:01.000
212,98531,Circle K,Circle K,,7060 US-49,Pitts Rd,Hattiesburg,Hattiesburg-Laurel,MS,39402,31.378701178744,-89.36532497406,Y,Y,Y,2021-09-04 04:41:11.053,2021-09-04 04:41:11.053,2021-08-31 17:53:57.097,2.61,1.0,16.2,2,2021-09-09 21:00:00.000,2021-09-10 19:23:01.000
213,89473,Exxon,Exxon,,6061 US-98 W,Rock-a-Bye Ln,Hattiesburg,Hattiesburg-Laurel,MS,39402,31.322205596441,-89.37793135643,Y,Y,Y,2021-08-31 22:17:36.716,2021-08-31 22:17:36.715,,,0.0,1.0,1,2021-09-09 23:00:00.000,2021-09-10 19:23:01.000
214,91779,Mobil,Mobil,,4904 Hardy St,Mayfair Rd,Hattiesburg,Hattiesburg-Laurel,MS,39402,31.322681,-89.36427,N,Y,N,2021-09-02 17:39:37.886,2021-05-22 04:02:01.706,2021-09-02 17:39:36.311,2.88,4.0,0.29,1,2021-09-09 22:00:00.000,2021-09-10 19:23:01.000
215,53697,Texaco,Texaco,,6470 US-98,Old US-11,Hattiesburg,Hattiesburg-Laurel,MS,39402,31.316541340003,-89.411995410919,Y,Y,Y,2021-05-12 15:16:13.212,,,2.89,4.0,5.65,2,2021-09-09 21:00:00.000,2021-09-10 19:23:01.000
216,103568,Oak Grove Pit Stop,,Lake Serene Grocery ,2601 Oak Grove Rd,Weatherby Rd,Hattiesburg,Hattiesburg-Laurel,MS,39402,31.307826152117,-89.373457431793,Y,Y,Y,,,,,0.0,1.0,1,2021-09-09 23:00:00.000,2021-09-10 19:23:01.000
217,73166,Bassfield Service Center,,,1754 MS-35,MS-42,Bassfield,"Jackson, MS",MS,39421,31.500235528563,-89.753365516662,Y,Y,Y,,,,,0.0,1.33,1,2021-09-05 17:00:00.000,2021-09-10 19:23:01.000
218,165365,J and J Market,,,7735 Hwy 35 N,McNease Rd,Bassfield,"Jackson, MS",MS,39421,31.44774,-89.767377,Y,Y,Y,,,,,0.0,1.02,1,2021-09-04 20:00:00.000,2021-09-10 19:23:01.000
219,122532,Texaco,Texaco,,4110 MS-42,Hawkins Ave,Bassfield,"Jackson, MS",MS,39421,31.49453,-89.741869,Y,Y,Y,,,,,0.0,0.35,1,2021-09-09 22:00:00.000,2021-09-10 19:23:01.000
220,174704,Short Stop,,,2647 MS-15,Bayless Dr,Bay Springs,Hattiesburg-Laurel,MS,39422,31.970212,-89.288034,Y,Y,Y,,,,,0.0,0.98,1,2021-09-09 10:00:00.000,2021-09-10 19:23:01.000
221,148723,Triangle,CITGO,,990 MS-198,Bradlay Ave,Beaumont,Hattiesburg-Laurel,MS,39423,31.169720348093,-88.919493556022,Y,Y,Y,,,,,0.0,1.04,1,2021-09-09 20:00:00.000,2021-09-10 19:23:01.000
222,84511,Circle K,Circle K,,8008 US-49 S,Walters Rd,Collins,Hattiesburg-Laurel,MS,39428,31.621374570583,-89.542350769043,Y,Y,Y,2021-05-11 13:00:58.486,2021-05-11 13:00:58.486,2021-05-11 13:00:58.486,2.69,1.0,1.0,1,2021-09-02 04:00:00.000,2021-09-10 19:23:01.000
223,107410,Robert's,,Corner Market,503 S Front St,W Oak St,Ellisville,Hattiesburg-Laurel,MS,39437,31.600615398418,-89.19921040535,Y,Y,Y,2019-02-15 15:47:06.463,2019-02-15 15:47:07.743,,,0.0,0.47,1,2021-09-09 23:00:00.000,2021-09-10 19:23:01.000
224,178504,Shell,Shell,RAPAD  643,1106 HWY 29 N,Hal Crocker Rd,Ellisville,Hattiesburg-Laurel,MS,39437,31.614814733918,-89.209499359131,Y,Y,Y,,,,2.65,1.0,1.47,1,2021-09-09 22:00:00.000,2021-09-10 19:23:01.000
225,122287,Murphy Express,Murphy Express,,1598 MS-15 N,15th St,Laurel,Hattiesburg-Laurel,MS,39440,31.709754,-89.149187,Y,Y,Y,2020-11-05 18:28:03.749,2020-11-05 18:28:05.019,2020-11-05 18:28:04.402,,0.0,1.0,1,2021-09-09 18:00:00.000,2021-09-10 19:23:01.000
226,103777,Texaco,Texaco,,3649 MS-15 N,Bush Dairy Rd,Laurel,Hattiesburg-Laurel,MS,39440,31.737306737106,-89.146327972412,Y,Y,Y,,,,,0.0,2.73,1,2021-09-07 23:00:00.000,2021-09-10 19:23:01.000
227,98669,Exxon,Exxon,,320 S 16th Ave,Jefferson St,Laurel,Hattiesburg-Laurel,MS,39443,31.686144097391,-89.147100448608,Y,Y,Y,,,,,0.0,1.0,1,2021-09-09 22:00:00.000,2021-09-10 19:23:01.000
228,190036,Sykes Grocery,,,100–120 Myrick Strengthford Rd,Mill Creek Rd,Laurel,Hattiesburg-Laurel,MS,39443,31.660888,-88.994182,Y,Y,Y,,,,,0.0,6.22,2,2021-09-08 19:00:00.000,2021-09-10 19:23:01.000
229,103030,Murphy USA,Murphy USA,,11216 MS-63,Ventura Dr ,Lucedale,Biloxi-Gulfport,MS,39452,30.902129,-88.597388,Y,Y,Y,2020-11-16 00:26:37.689,2020-11-16 00:26:37.690,2020-11-16 00:26:37.690,,0.0,1.04,1,2021-09-09 22:00:00.000,2021-09-10 19:23:01.000
230,103781,Maples Gas,,Angel's Corner,14141 MS-26 W,Basin-Central Rd,Lucedale,Biloxi-Gulfport,MS,39452,30.880349169296,-88.655749261379,Y,Y,Y,,,,,0.0,1.16,1,2021-09-09 19:00:00.000,2021-09-10 19:23:01.000
231,197946,Keith's Superstore,,,MS-13,I-59,Lumberton,Hattiesburg-Laurel,MS,39455,31.001039,-89.421685,N,Y,Y,2021-09-01 19:38:12.284,2021-09-01 19:38:11.076,2021-09-01 19:38:09.362,,0.0,8.75,2,2021-09-09 19:00:00.000,2021-09-10 19:23:01.000
232,103784,Shell,Shell,,101 Heber Ladner Ave,Main Ave,Lumberton,Hattiesburg-Laurel,MS,39455,31.001517,-89.452226,N,Y,N,2021-09-03 11:09:32.754,2021-09-03 11:09:31.470,2021-09-03 11:09:32.178,,0.0,1.02,1,2021-09-09 22:00:00.000,2021-09-10 19:23:01.000
233,165594,Pure,,Mak's,2102 US-11,Quick Rd,Petal,Hattiesburg-Laurel,MS,39465,31.434004797677,-89.284223020077,Y,Y,Y,,,,2.67,1.0,1.0,1,2021-09-09 12:00:00.000,2021-09-10 19:23:01.000
234,103973,Exxon,Exxon,,1111 Memorial Blvd,I-59 ,Picayune,New Orleans,MS,39466,30.518034261898,-89.666365385056,Y,Y,N,2021-09-05 18:03:13.277,2021-09-05 18:03:14.127,2021-09-03 15:20:11.283,2.83,3.0,1.05,1,2021-09-09 23:00:00.000,2021-09-10 19:23:01.000
235,172831,Eagle 100,,,1200 US-11 S,Meadowgreen Blvd,Picayune,New Orleans,MS,39466,30.510456912912,-89.683767557144,N,N,Y,2021-09-05 19:57:46.024,2021-09-05 19:57:46.023,,,0.0,1.02,1,2021-09-06 01:00:00.000,2021-09-10 19:23:01.000
236,178022,Love's Travel Stop,Love's,,720 MS-26 E,I-59,Poplarville,New Orleans,MS,39470,30.846383,-89.497939,Y,Y,Y,2021-09-07 11:15:43.569,2021-09-07 11:15:48.604,2021-09-07 11:15:48.120,2.69,1.0,10.85,2,2021-09-09 22:00:00.000,2021-09-10 19:23:01.000
237,187754,Prentiss Quick Stop,,,2105 Columbia Ave,Front St,Prentiss,"Jackson, MS",MS,39474,31.598835760148,-89.867211207747,Y,Y,Y,,,,,0.0,1.68,1,2021-09-07 15:00:00.000,2021-09-10 19:23:01.000
238,152573,Pure,Pure,,Front St,Gum Ave,Richton,Hattiesburg-Laurel,MS,39476,31.353799,-88.935738,Y,Y,Y,,,,2.97,5.0,1.05,1,2021-09-09 20:00:00.000,2021-09-10 19:23:01.000
239,174498,Darbun General Store,,,259 MS-586,Rowley Rd,Foxworth,Hattiesburg-Laurel,MS,39483,31.274324,-90.01869,Y,Y,Y,2021-09-01 22:46:08.169,2021-09-01 22:46:08.169,,,0.0,26.0,2,2021-09-01 22:00:00.000,2021-09-10 19:23:01.000
240,174056,Owen's Grocery,,,1520 MS-586,Taylor Rd,Foxworth,Hattiesburg-Laurel,MS,39483,31.233862,-89.927865,Y,Y,Y,,,,,0.0,3.03,1,2021-09-04 14:00:00.000,2021-09-10 19:23:01.000
241,151336,R&K Pit Stop,,,134 MS-587,MS-586,Foxworth,Hattiesburg-Laurel,MS,39483-5027,31.23486,-89.871433,Y,Y,Y,,,,,0.0,1.0,1,2021-09-09 15:00:00.000,2021-09-10 19:23:01.000
242,104083,Smart Mart,,,7820 US-51 N,Custer Dr,Southaven,Memphis,MS,38672,34.97453,-90.01569,Y,Y,Y,2020-10-17 18:54:38.614,2020-10-17 18:54:39.828,,,0.0,60.0,4,2021-09-09 01:00:00.000,2021-09-10 19:23:01.000
243,156967,Marathon,Marathon,,1173 S Main St,Hickory Ln,Tunica,Memphis,MS,38676,34.687136823179,-90.38355588913,Y,Y,Y,2020-10-23 19:33:10.346,2020-10-23 19:33:12.260,,,0.0,1.03,1,2021-09-07 16:00:00.000,2021-09-10 19:23:01.000
244,90137,Exxon,Exxon,,711 E Reed Rd,Fairview Ave,Greenville,Greenwood-Greenville,MS,38701-7133,33.385247,-91.041735,Y,Y,Y,,,,,0.0,0.86,1,2021-09-09 17:00:00.000,2021-09-10 19:23:01.000
245,104053,B Quick,,,207 MS-1,Wilcox Rd,Greenville,Greenwood-Greenville,MS,38701,33.326661050355,-91.043926477432,Y,Y,Y,2020-10-28 00:21:49.339,2020-10-28 00:21:50.417,,,0.0,1.2,1,2021-09-07 16:00:00.000,2021-09-10 19:23:01.000
246,123153,Double Quick,,Double Quick 80,598 MS-1 N,Old Leland Rd,Greenville,Greenwood-Greenville,MS,38701,33.41506346688,-91.037966609001,Y,Y,Y,,,,,0.0,1.0,1,2021-09-08 19:00:00.000,2021-09-10 19:23:01.000
247,153469,Phillips 66,Phillips 66,,Main St,Old US-61,Greenville,Greenwood-Greenville,MS,38701,33.269735,-90.876865,Y,Y,Y,,,,,0.0,1.02,1,2021-09-09 23:00:00.000,2021-09-10 19:23:01.000
248,103169,Kroger,Kroger,,602 N Davis Ave,Industrial Pkwy,Cleveland,Greenwood-Greenville,MS,38732,33.752479355146,-90.715355873108,Y,Y,Y,2020-10-10 23:20:39.000,2020-10-10 23:20:41.832,2020-10-10 23:20:41.181,,0.0,1.02,1,2021-09-09 00:00:00.000,2021-09-10 19:23:01.000
249,127092,Shell,Shell,,MS-8,Dr Martin Luther King Jr Dr,Cleveland,Greenwood-Greenville,MS,38732,33.747198290137,-90.710978507996,Y,Y,Y,2020-10-13 15:38:05.500,2020-10-11 00:48:57.189,,,0.0,0.77,1,2021-09-09 12:00:00.000,2021-09-10 19:23:01.000
250,103162,Exxon,Exxon,,540 US-82,N Sunflower Ave,Indianola,Greenwood-Greenville,MS,38751,33.45824100306,-90.644985437393,Y,Y,Y,,,,2.96,5.0,2.0,1,2021-09-09 23:00:00.000,2021-09-10 19:23:01.000
251,193530,Windham Service,,,406 S Edwards Ave,W South St,Mound Bayou,Greenwood-Greenville,MS,38762-9306,33.875143422915,-90.727708116173,Y,Y,Y,,,,,0.0,0.28,1,2021-08-27 22:00:00.000,2021-09-10 19:23:01.000
252,92825,Scott Petroleum,,,121 W Harrison,S Ruby St,Ruleville,Greenwood-Greenville,MS,38771,33.728134,-90.550817,Y,Y,Y,,,,,0.0,1.88,1,2021-09-01 02:00:00.000,2021-09-10 19:23:01.000
253,170510,CITGO,CITGO,Sunflower CITGO,398 E Quiver St Ext,US-49,Sunflower,Greenwood-Greenville,MS,38778,33.731562825612,-90.546966791153,Y,Y,Y,2020-10-19 06:32:45.808,2020-10-19 06:32:47.075,2020-10-19 06:32:46.458,,0.0,1.03,1,2021-09-09 22:00:00.000,2021-09-10 19:23:01.000
254,95534,Dodge's Store,,,2290 W Main St,Maynard Dr,Tupelo,Columbus-Tupelo-West Point-Houston,MS,38801,34.256076950864,-88.741625547409,Y,Y,Y,2020-11-06 13:12:24.036,2020-11-06 13:12:24.637,,2.63,1.0,0.44,1,2021-09-09 23:00:00.000,2021-09-10 19:23:01.000
255,104127,Chevron,Chevron,,2841 Cliff Gookin Blvd,S Thomas St,Tupelo,Columbus-Tupelo-West Point-Houston,MS,38801,34.224052,-88.745885,Y,Y,Y,2020-11-07 16:59:42.973,2020-11-07 16:59:43.528,,,0.0,1.28,1,2021-09-09 22:00:00.000,2021-09-10 19:23:01.000
256,103165,Kroger,Kroger,, 960 W Main St,Park St,Tupelo,Columbus-Tupelo-West Point-Houston,MS,38801,34.257683467797,-88.717346191406,Y,Y,Y,2021-05-13 21:17:32.329,2021-05-12 13:37:29.188,,2.61,1.0,1.15,1,2021-09-09 21:00:00.000,2021-09-10 19:23:01.000
257,153710,Eagle,Dees Oil,,923 Lawndale Dr,Ida St,Tupelo,Columbus-Tupelo-West Point-Houston,MS,38801,34.250611,-88.728502,Y,Y,Y,,,,,0.0,1.37,1,2021-09-09 21:00:00.000,2021-09-10 19:23:01.000
258,104137,Texaco,Texaco,T-mart  3,1360 Barnes Crossing Rd,Cross Creek Dr,Tupelo,Columbus-Tupelo-West Point-Houston,MS,38801,34.315912663282,-88.695604205132,Y,Y,Y,2020-11-23 02:20:06.466,2020-11-23 02:20:07.449,2020-11-23 02:20:08.550,,0.0,1.08,1,2021-09-09 21:00:00.000,2021-09-10 19:23:01.000
259,162775,Murphy Express,Murphy Express,,2255 W Main St,Maynard Dr,Tupelo,Columbus-Tupelo-West Point-Houston,MS,38801,34.255492,-88.740622,Y,Y,Y,2021-05-13 23:28:51.466,2021-05-13 23:28:53.276,2021-05-13 23:28:52.376,2.61,1.0,6.99,2,2021-09-09 22:00:00.000,2021-09-10 19:23:01.000
260,103297,Texaco,Texaco,,214 S Thomas St,W Main St,Tupelo,Columbus-Tupelo-West Point-Houston,MS,38802,34.253494930969,-88.746517896652,Y,Y,Y,2020-10-10 22:19:20.349,2020-10-10 22:19:20.349,2020-10-10 22:19:20.349,,0.0,8.11,2,2021-09-08 20:00:00.000,2021-09-10 19:23:01.000
261,53772,Shell,Shell,Sprint Mart 43,1930 Briar Ridge Rd,Eason Blvd,Tupelo,Columbus-Tupelo-West Point-Houston,MS,38804,34.236015810181,-88.672730326653,Y,Y,Y,2020-11-03 19:09:27.689,2020-11-03 19:09:27.688,2020-11-03 19:09:27.689,2.69,1.0,2.57,1,2021-09-09 00:00:00.000,2021-09-10 19:23:01.000
262,102966,Sam's Club,Sam's Club,,3833 N Gloster St,MS-145,Tupelo,Columbus-Tupelo-West Point-Houston,MS,38804,34.307516072872,-88.707411289215,Y,Y,Y,2021-05-12 23:04:18.718,2021-05-12 23:04:19.216,,,0.0,0.17,1,2021-09-09 22:00:00.000,2021-09-10 19:23:01.000
263,161468,Algoma,Dees Oil,Algoma,978 Algoma Rd,Front St,Algoma,Columbus-Tupelo-West Point-Houston,MS,38820,34.17635846458,-89.030920565128,Y,Y,Y,,,,,0.0,9.07,2,2021-09-09 22:00:00.000,2021-09-10 19:23:01.000
264,132485,Chevron,Chevron,,1204 MS-25 S,US-278,Amory,Columbus-Tupelo-West Point-Houston,MS,38821,33.976298899485,-88.490517139435,Y,Y,Y,2020-10-13 00:12:23.584,2020-10-13 00:12:23.584,2020-10-13 00:12:23.584,,0.0,11.85,2,2021-09-09 19:00:00.000,2021-09-10 19:23:01.000
265,103264,Chevron,BP,,116 MS-145 S,MS-362,Baldwyn,Columbus-Tupelo-West Point-Houston,MS,38824,34.509138,-88.635582,Y,Y,Y,2020-11-08 21:14:19.381,2020-11-08 21:14:19.385,,,0.0,1.0,1,2021-09-09 14:00:00.000,2021-09-10 19:23:01.000
266,128708,Love's Travel Stop,Love's,,4601  McCullough Blvd,US-78,Tupelo,Columbus-Tupelo-West Point-Houston,MS,38826,34.31645321,-88.79102111,Y,Y,Y,2020-11-21 08:04:15.329,2020-11-21 08:04:16.335,2020-11-21 08:04:15.850,2.68,1.0,15.87,2,2021-09-09 21:00:00.000,2021-09-10 19:23:01.000
267,188176,Valero,,,303 N 2nd St,Adams St,Booneville,Columbus-Tupelo-West Point-Houston,MS,38829,34.660252,-88.567207,Y,Y,Y,2020-10-14 20:28:04.193,2020-10-14 20:28:04.193,,2.77,3.0,1.0,1,2021-09-09 23:00:00.000,2021-09-10 19:23:01.000
268,179238,Finley's Country Store,,,11 MS-365 S,CR-206,Burnsville,Columbus-Tupelo-West Point-Houston,MS,38833,34.756599,-88.351836,Y,Y,Y,,,,,0.0,,0,,2021-09-10 19:23:01.000
269,53673,Exxon,Exxon,Buck's 66,3409 US-72 E,Norman Rd,Corinth,Memphis,MS,38834,34.930416,-88.55796,Y,Y,Y,2021-05-12 21:12:02.556,2021-05-12 21:12:02.556,,2.69,1.0,2.04,1,2021-09-09 21:00:00.000,2021-09-10 19:23:01.000
270,158290,Kroger,Kroger,,104 US-72 E,S Fulton Dr,Corinth,Memphis,MS,38834,34.926955439846,-88.524015247822,Y,Y,Y,2021-05-13 19:42:14.374,2021-05-13 19:42:14.376,2021-05-13 19:42:14.376,2.64,1.0,1.13,1,2021-09-09 15:00:00.000,2021-09-10 19:23:01.000
271,53691,Chevron,CITGO,,1103 Pass Rd,Broadmore Pl,Gulfport,Biloxi-Gulfport,MS,39501,30.386145,-89.06942,Y,Y,N,2021-09-03 16:27:35.335,2021-09-03 16:27:35.333,2021-09-01 14:43:32.483,2.96,5.0,1.42,1,2021-09-09 22:00:00.000,2021-09-10 19:23:01.000
272,136109,Pure,Pure,Pure Country,10166 Lorraine Rd,Seaway Rd,Gulfport,Biloxi-Gulfport,MS,39503,30.432235,-89.03052,Y,Y,Y,2021-09-08 15:43:01.245,2021-09-08 15:43:02.652,2021-09-08 15:43:01.987,2.79,3.0,8.65,2,2021-09-09 15:00:00.000,2021-09-10 19:23:01.000
273,103443,Chevron,Chevron,,1925 E Pass Rd,Ford St,Gulfport,Biloxi-Gulfport,MS,39507,30.40064,-89.014792,Y,Y,Y,2021-09-08 18:49:13.050,2021-09-08 18:49:13.051,,,0.0,0.15,1,2021-09-09 21:00:00.000,2021-09-10 19:23:01.000
274,49459,Shell,Shell,,700 US-90,Main St,Bay St Louis,New Orleans,MS,39520,30.316644140659,-89.346560239792,Y,Y,Y,2021-09-07 00:39:14.730,2021-09-07 00:39:14.730,2021-09-07 00:39:14.730,,0.0,1.07,1,2021-09-09 23:00:00.000,2021-09-10 19:23:01.000
275,103462,Food Mart,,M & N Casino Food Mart,295 Oak St,Division St,Biloxi,Biloxi-Gulfport,MS,39530,30.403053,-88.86795,Y,Y,Y,2021-09-02 17:52:48.749,2021-09-02 17:52:48.749,,,0.0,60.0,4,2021-09-08 15:00:00.000,2021-09-10 19:23:01.000
276,53636,CITGO,CITGO,GOCO 302,15800 Lemoyne Blvd,Denver Dr,Biloxi,Biloxi-Gulfport,MS,39532,30.442680044354,-88.873257637023,Y,Y,Y,,,,,0.0,5.08,2,2021-09-07 23:00:00.000,2021-09-10 19:23:01.000
277,17529,Love's Travel Stop,Love's,Love's Travel Stops,11332 Cedar Lake Rd,Spring Rd,Biloxi,Biloxi-Gulfport,MS,39532-8429,30.452114,-88.93375,Y,Y,Y,2021-09-08 22:54:16.319,2021-09-07 13:32:54.850,2021-09-07 13:32:54.853,2.69,1.0,1.04,1,2021-09-09 23:00:00.000,2021-09-10 19:23:01.000
278,168023,Community Market,,,14272 Lamey Bridge Rd,Rd 109,Biloxi,Biloxi-Gulfport,MS,39532,30.492597,-88.903095,Y,Y,Y,,,,,0.0,0.33,1,2021-09-07 22:00:00.000,2021-09-10 19:23:01.000
279,96002,Shell,Shell,,10073 Rodriguez  St,3rd Ave,D Iberville,Biloxi-Gulfport,MS,39540,30.429280902952,-88.892523944378,Y,Y,Y,2021-09-06 23:19:56.871,2021-09-06 23:19:56.871,2021-09-06 17:12:16.446,2.77,2.0,5.8,2,2021-09-09 23:00:00.000,2021-09-10 19:23:01.000
280,137709,Petro,,Martin Bluff Grocery,7204 Martin Bluff Rd,Stanfield Point Rd,Gautier,Biloxi-Gulfport,MS,39553-3249,30.44546879534,-88.631083667278,Y,Y,Y,,,,,0.0,1.0,1,2021-09-09 19:00:00.000,2021-09-10 19:23:01.000
281,141514,Hebert's,,Tony's Quick Stop,23320 MS-603,Hayward H Ladner Rd,Kiln,New Orleans,MS,39556,30.509551,-89.432765,Y,Y,N,2021-09-04 14:15:30.789,2020-10-29 20:01:14.420,2021-09-04 14:15:30.790,,0.0,5.05,2,2021-09-09 18:00:00.000,2021-09-10 19:23:01.000
282,204608,Keith’s Superstore,Marathon,,19000 28th St,N Klondyke Rd,Long Beach,Biloxi-Gulfport,MS,39560,30.3843984,-89.1566847,Y,Y,Y,2021-09-09 17:55:05.237,2021-09-05 00:25:04.432,,,0.0,,0,,2021-09-10 19:23:01.000
283,133528,Moss Point Gas n Save,,,4800 Main St,Welch Ave,Moss Point,Biloxi-Gulfport,MS,39563-2732,30.410422,-88.538994,Y,Y,Y,2021-05-11 20:22:23.549,,,,0.0,4.05,1,2021-09-09 22:00:00.000,2021-09-10 19:23:01.000
284,176368,Texaco,Texaco,,6821 MS-613,Wembley Ave,Moss Point,Biloxi-Gulfport,MS,39563,30.441038,-88.544204,Y,Y,Y,,,,,0.0,1.16,1,2021-09-07 22:00:00.000,2021-09-10 19:23:01.000
285,97609,Texaco,Exxon,Texaco,6436 MS-57 ,Campbell Rd,Ocean Springs,Biloxi-Gulfport,MS,39564,30.434345689565,-88.714798092842,Y,Y,Y,2021-09-06 22:21:45.023,2021-09-06 22:21:45.023,,2.89,4.0,1.25,1,2021-09-09 15:00:00.000,2021-09-10 19:23:01.000
286,80277,Sal Quick Stop,,Sainath Quick Stop,2340 Government St,Bechtel Blvd,Ocean Springs,Biloxi-Gulfport,MS,39564,30.413419944383,-88.806170225143,N,Y,Y,2021-09-06 02:41:20.064,,,,0.0,0.28,1,2021-09-09 22:00:00.000,2021-09-10 19:23:01.000
287,80276,Shell,Shell,Ocean Springs Shell,1120 Bienville Blvd,Washington Ave,Ocean Springs,Biloxi-Gulfport,MS,39564,30.415824407131,-88.82428586483,Y,Y,Y,2021-09-09 16:07:00.498,2021-09-09 16:07:01.315,2021-09-09 16:07:00.940,2.75,2.0,1.0,1,2021-09-09 22:00:00.000,2021-09-10 19:23:01.000
288,100155,Exxon,Exxon,FastMart 26,2995 Bienville Blvd,Gilford Rd,Ocean Springs,Biloxi-Gulfport,MS,39564-4305,30.413682483601,-88.786123394966,Y,Y,Y,2021-09-09 16:06:12.990,2021-09-09 16:06:13.332,,,0.0,0.37,1,2021-09-09 22:00:00.000,2021-09-10 19:23:01.000
289,147627,Shell,Shell,,1208 Main St,Center St,Ocean Springs,Biloxi-Gulfport,MS,39564,30.3592698,-88.7153735,Y,Y,Y,2021-09-06 23:26:40.645,2021-09-06 23:26:40.645,,,0.0,1.12,1,2021-09-09 22:00:00.000,2021-09-10 19:23:01.000
290,190206,Polks Drugs,,,6008 Washington Ave,Pine St,Ocean Springs,Biloxi-Gulfport,MS,39564,30.429211520487,-88.828765153884,Y,Y,Y,2020-10-12 23:56:31.680,2020-10-12 23:56:31.680,2020-10-12 23:56:31.680,,0.0,0.83,1,2021-09-09 21:00:00.000,2021-09-10 19:23:01.000
291,192070,Walmart Neighborhood Market,,,6412 Washington Ave,Sunny Side Dr,Ocean Springs,Biloxi-Gulfport,MS,39564,30.434746,-88.829806,Y,Y,Y,2021-09-03 19:49:51.474,2021-09-03 19:49:51.474,2021-09-03 19:49:51.474,2.62,1.0,1.02,1,2021-09-09 21:00:00.000,2021-09-10 19:23:01.000
292,80272,Fayard's,,The Honey Hole,11001 MS-57,Humphrey Rd,Vancleave,Biloxi-Gulfport,MS,39565,30.502287817502,-88.703892230988,Y,Y,Y,,,,,0.0,1.0,1,2021-09-09 22:00:00.000,2021-09-10 19:23:01.000
293,53750,Shell,Shell,Telephone Rd Shell,4600 Telephone Rd,Hospital St,Pascagoula,Biloxi-Gulfport,MS,39567-1827,30.380041,-88.535352,Y,Y,Y,2018-10-11 20:37:46.676,2018-10-11 20:37:46.678,,2.67,1.0,3.38,1,2021-09-09 23:00:00.000,2021-09-10 19:23:01.000
294,133523,Mom And Pop Quick Stop,,,4820 Telephone Rd,Andrew Ave,Pascagoula,Biloxi-Gulfport,MS,39567,30.38277,-88.53446,Y,Y,Y,2020-11-25 12:48:41.492,2020-11-25 12:48:41.493,2020-11-25 12:48:41.493,,0.0,1.21,1,2021-09-09 20:00:00.000,2021-09-10 19:23:01.000
295,137813,Chevron,,Dave's,13188 E Wortham Rd,MS-67,Saucier,Biloxi-Gulfport,MS,39574,30.587806,-89.058287,Y,Y,Y,,,,,0.0,1.0,1,2021-09-09 14:00:00.000,2021-09-10 19:23:01.000
296,133878,Jackie's Grocery,,,24281 MS-53,Northrup Cuevas Rd,Saucier,Biloxi-Gulfport,MS,39574,30.540802498144,-89.247134774923,Y,Y,Y,,,,,0.0,2.73,1,2021-09-08 23:00:00.000,2021-09-10 19:23:01.000
297,87683,Circle K,Circle K,Pantry,1911 S Azeala Rd,Inda Rd E,Wiggins,Biloxi-Gulfport,MS,39577,30.8275,-89.13587,Y,Y,Y,,,,2.65,1.0,7.62,2,2021-09-09 23:00:00.000,2021-09-10 19:23:01.000
298,104164,Marathon,Marathon,Keith's Superstore,1220 W Central Ave,E Frontage Dr,Wiggins,Biloxi-Gulfport,MS,39577,30.851441127916,-89.152448773384,Y,Y,Y,,,,,0.0,1.71,1,2021-09-09 23:00:00.000,2021-09-10 19:23:01.000
299,92579,Exxon,Exxon,FastMart 13,4900 Chicot St ,Denny Ave,Pascagoula,Biloxi-Gulfport,MS,39581,30.37943,-88.5254,Y,Y,Y,,,,,0.0,1.02,1,2021-09-09 22:00:00.000,2021-09-10 19:23:01.000
300,108343,Dixie,,,1101 B St,11th Ave S ,Meridian,Atlanta,MS,30301,32.365529691583,-88.688295185566,Y,Y,Y,,,,,0.0,1.98,1,2021-09-09 21:00:00.000,2021-09-10 19:23:01.000
301,123154,Double Quick,,Double Quick 85,465 MS-1 N,E Union St,Greenville,Memphis,MS,38071,33.409654241173,-91.037403345108,Y,Y,Y,2020-10-16 18:20:38.414,2020-10-16 18:20:39.043,,,0.0,1.04,1,2021-09-09 23:00:00.000,2021-09-10 19:23:01.000
302,103292,Chevron,Chevron,,450 MS-6 E,Robin Ln,Batesville,Memphis,MS,38606,34.310299,-89.953812,Y,Y,Y,2020-10-10 22:28:43.177,2020-10-10 22:28:43.177,,2.75,2.0,0.1,1,2021-09-09 20:00:00.000,2021-09-10 19:23:01.000
303,103291,Marathon,Marathon,,1185 MS-6 E,Medical Center Dr,Batesville,Memphis,MS,38606,34.309536648396,-89.908182621002,Y,Y,Y,2020-10-15 16:40:39.549,2020-10-15 16:40:39.550,2020-10-15 16:40:39.549,,0.0,7.61,2,2021-09-09 21:00:00.000,2021-09-10 19:23:01.000
304,139758,Double Quick,,Double Quick 105,402 Desoto Ave,Martin Luther King Blvd,Clarksdale,Memphis,MS,38614,34.20016080498,-90.566681027412,Y,Y,Y,,,,,0.0,60.0,4,2021-09-08 20:00:00.000,2021-09-10 19:23:01.000
305,109697,Valero,Valero,,9944 US-51,John Hattox Rd,Coldwater,Memphis,MS,38618,34.695682713531,-89.979049265385,Y,Y,Y,2020-10-10 18:11:44.378,2020-10-10 18:11:44.378,,,0.0,2.0,1,2021-09-09 19:00:00.000,2021-09-10 19:23:01.000
306,53704,Shell,Shell,,586 E Commerce St,E Pkwy St,Hernando,Memphis,MS,38632,34.824053,-89.979085,Y,Y,Y,2020-11-23 01:25:10.074,2020-11-23 01:25:10.074,2020-11-23 01:25:10.073,2.63,1.0,1.22,1,2021-09-09 21:00:00.000,2021-09-10 19:23:01.000
307,103583,Chevron,Chevron,,2975 US-51 S,Oak Grove Rd,Hernando,Memphis,MS,38632,34.816697739379,-89.994131326675,Y,Y,Y,2020-10-10 17:09:50.116,2020-10-10 17:09:50.116,2020-10-10 17:09:50.116,,0.0,1.02,1,2021-09-09 22:00:00.000,2021-09-10 19:23:01.000
308,200724,BP,BP,,55 Hwy-51 S,US-69,Hernando,Memphis,MS,38632,34.859551,-89.995955,Y,Y,Y,2020-10-21 22:26:42.672,2020-10-17 14:16:34.613,2020-10-17 14:16:33.838,2.99,5.0,6.38,2,2021-09-09 20:00:00.000,2021-09-10 19:23:01.000
309,150565,Exxon,Exxon,Outfitters,8995 MS-304,MS-301,Hernando,Memphis,MS,38632,34.830367503793,-90.148320794106,Y,Y,Y,2020-10-12 10:58:36.752,2020-10-12 10:58:37.951,2020-10-12 10:58:37.385,2.79,3.0,4.78,1,2021-09-08 19:00:00.000,2021-09-10 19:23:01.000
310,104055,Sid's 51 Market,CITGO,,320 Wheeler Rd,US-51,Hernando,Memphis,MS,38632,34.743585543193,-89.99417424202,Y,Y,Y,,,,,0.0,4.78,1,2021-09-09 22:00:00.000,2021-09-10 19:23:01.000
311,103032,Murphy USA,Murphy USA,,2580 McIngvale Rd,E Commerce St,Hernando,Memphis,MS,38632,34.822548,-89.971389,Y,Y,Y,2021-05-16 19:55:58.167,2021-05-16 19:55:59.930,2021-05-16 19:55:59.029,2.63,1.0,5.35,2,2021-09-09 22:00:00.000,2021-09-10 19:23:01.000
312,53706,Shell,Shell,Circle K,720 Goodman Rd W,Interstate Dr,Horn Lake,Memphis,MS,38637,34.963029181453,-90.004991590977,Y,Y,Y,2021-09-08 20:35:09.701,2021-09-08 20:35:09.702,2021-09-08 20:35:09.702,2.64,1.0,1.02,1,2021-09-09 23:00:00.000,2021-09-10 19:23:01.000
313,104058,CITGO,CITGO,Bull Market 29,1510 Nail Rd W,US-51,Horn Lake,Memphis,MS,38637,34.948638964103,-90.017166137695,Y,Y,Y,2020-10-11 22:42:20.854,2020-10-11 22:42:20.854,2020-10-11 22:42:20.854,,0.0,1.0,1,2021-09-09 23:00:00.000,2021-09-10 19:23:01.000
314,103593,Donnie's Deli,Dees Oil,,6005 Tulane Rd,Nail Rd,Horn Lake,Memphis,MS,38637,34.948438459378,-90.043451786041,Y,Y,Y,2020-11-16 11:55:56.485,2020-11-16 11:55:56.481,,,0.0,3.05,1,2021-09-09 22:00:00.000,2021-09-10 19:23:01.000
315,97965,Sam's Grocery,,,1005 MS-349 ,MS-30 W,New Albany,Columbus-Tupelo-West Point-Houston,MS,38650,34.487254,-89.212707,Y,Y,Y,,,,,0.0,2.45,1,2021-08-28 18:00:00.000,2021-09-10 19:23:01.000
316,92781,Exxon,Exxon,Express Shop 16,100 Park Plaza Dr,MS-30,New Albany,Columbus-Tupelo-West Point-Houston,MS,38652,34.495889007983,-89.033449888229,Y,Y,Y,2020-11-15 18:21:36.122,2020-11-15 18:21:36.122,,,0.0,0.83,1,2021-09-09 21:00:00.000,2021-09-10 19:23:01.000
317,97961,Reed's Market,,,300 W Bankhead St,Talahatchie Tr,New Albany,Columbus-Tupelo-West Point-Houston,MS,38652,34.495203722983,-89.017163515091,Y,Y,Y,,,,2.67,1.0,2.74,1,2021-09-09 23:00:00.000,2021-09-10 19:23:01.000
318,97952,Tony's Too,Dees Oil,Tony's Too,221 MS-30 W,US-78,New Albany,Columbus-Tupelo-West Point-Houston,MS,38652-3130,34.499041,-89.028161,Y,Y,Y,2020-11-15 18:20:55.747,2020-11-15 18:20:55.747,,,0.0,5.86,2,2021-09-09 04:00:00.000,2021-09-10 19:23:01.000
319,53741,Chevron,Chevron,,8220 Hacks Cross Rd,Airport Rd,Olive Branch,Memphis,MS,38654,34.978709134842,-89.794692993164,Y,Y,Y,2020-11-02 01:42:06.784,2020-11-02 01:42:06.784,,,0.0,1.04,1,2021-09-09 18:00:00.000,2021-09-10 19:23:01.000
320,203575,Exxon,Exxon,Pride Mart,7641 Hacks Cross Rd,Ridgeway Industrial Dr,Olive Branch,Memphis,MS,38654,34.97165,-89.795583,Y,Y,Y,,,,,0.0,10.98,2,2021-09-09 23:00:00.000,2021-09-10 19:23:01.000
321,187409,MAPCO,MAPCO,,4955 Goodman Rd,Pleasant Hill Rd,Olive Branch,Memphis,MS,38654,34.962031576412,-89.902002811432,Y,Y,Y,2021-05-19 17:13:04.193,2021-05-19 17:13:04.193,2021-05-19 17:13:04.193,,0.0,8.52,2,2021-09-09 23:00:00.000,2021-09-10 19:23:01.000
322,103935,76 Oxford,76,Ward's Short Stop,2502 Old Taylor Rd,Oxford Way,Oxford,Memphis,MS,38655,34.34858800639,-89.542318582535,Y,Y,Y,2020-10-11 11:03:40.596,2020-10-11 11:03:44.418,,,0.0,0.42,1,2021-09-09 23:00:00.000,2021-09-10 19:23:01.000
323,103937,Chevron,Chevron,,725 Molly Barr Rd,McElroy Dr,Oxford,Memphis,MS,38655,34.378536674377,-89.527308940887,Y,Y,Y,2020-10-10 18:18:19.017,2020-10-10 18:18:19.017,2020-10-10 18:18:19.017,2.89,4.0,2.0,1,2021-09-09 16:00:00.000,2021-09-10 19:23:01.000
324,153852,Jimmy Mart,Dees Oil,Jimmy Mart,1011 N Lamar Blvd,Pleasant Dr,Oxford,Memphis,MS,38655,34.376757,-89.512314,Y,Y,Y,,,,,0.0,0.62,1,2021-09-09 16:00:00.000,2021-09-10 19:23:01.000
325,103928,Valero,Valero,Big V,1167 MS-6 E,CR-282,Oxford,Memphis,MS,38655,34.31167,-89.316185,Y,Y,Y,2020-10-14 23:01:14.323,2020-10-14 23:01:14.323,,,0.0,0.78,1,2021-09-09 12:00:00.000,2021-09-10 19:23:01.000
326,186404,Shell,Shell,,701 Sisk Ave,Sisk Ave,Oxford,Memphis,MS,38655,34.373276,-89.49728,Y,Y,Y,2020-10-10 18:19:50.635,2020-10-10 18:19:50.635,2020-10-10 18:19:50.635,,0.0,2.03,1,2021-09-09 23:00:00.000,2021-09-10 19:23:01.000
327,141594,Dees Oil,Dees Oil,Corner Quick,6918 Church St,S Center St,Potts Camp,Memphis,MS,38659,34.646038071961,-89.305444657803,Y,Y,Y,,,,,0.0,6.07,2,2021-09-08 16:00:00.000,2021-09-10 19:23:01.000
328,104029,BP,BP,Haynes Service,1117 City Ave N,Market St,Ripley,Memphis,MS,38663,34.742432402333,-88.948710858822,Y,Y,Y,2020-10-10 17:55:43.448,2020-10-10 17:55:43.448,2020-10-10 17:55:43.448,,0.0,0.1,1,2021-09-09 00:00:00.000,2021-09-10 19:23:01.000
329,175267,Dollar General,Walmart,,420 E Lee St,Armory Rd,Sardis,Memphis,MS,38666,34.437762,-89.901617,Y,Y,Y,,,,2.79,3.0,5.42,2,2021-09-08 23:00:00.000,2021-09-10 19:23:01.000
330,172213,Helm's One Stop,,,28675 MS-35,Phil Ln,Sardis,Memphis,MS,38666,34.393622,-89.798362,Y,Y,Y,,,,,0.0,1.43,1,2021-08-31 21:00:00.000,2021-09-10 19:23:01.000
331,136313,CrossRoads Quick,Dees Oil,CrossRoads Quick,2796 S Harper Rd,S Tate St,Corinth,Memphis,MS,38834,34.909191048196,-88.541468381882,Y,Y,Y,2020-11-01 03:47:46.946,2020-11-01 03:47:46.968,2020-11-01 03:47:46.969,2.67,1.0,2.01,1,2021-09-09 22:00:00.000,2021-09-10 19:23:01.000
332,166661,Sprint Mart,Shell,,2701 Hwy 72 W,Wegman Rd,Corinth,Memphis,MS,38834,34.930562245444,-88.551236987114,Y,Y,Y,2020-10-31 17:10:09.344,2020-10-31 17:10:09.351,2020-10-31 17:10:09.351,2.69,1.0,9.74,2,2021-09-09 21:00:00.000,2021-09-10 19:23:01.000
333,53729,Shell,Shell,Sprint Mart,1 W Main St,Will Robbins Hwy,Nettleton,Columbus-Tupelo-West Point-Houston,MS,38858,34.088781429326,-88.624970912933,Y,Y,Y,2020-10-12 17:49:46.277,2020-10-12 17:49:47.024,,2.73,2.0,6.32,2,2021-09-08 14:00:00.000,2021-09-10 19:23:01.000
334,149642,Okolona Supperette,,,419 S Church St,Hawkins St,Okolona,Columbus-Tupelo-West Point-Houston,MS,38860,33.99504,-88.755535,Y,Y,Y,,,,,0.0,2.27,1,2021-09-05 18:00:00.000,2021-09-10 19:23:01.000
335,122141,Pure,Pure,,2599 MS-6,W Central St,Plantersville,Columbus-Tupelo-West Point-Houston,MS,38862,34.206797992726,-88.663659095764,Y,Y,Y,,,,,0.0,16.1,2,2021-09-08 19:00:00.000,2021-09-10 19:23:01.000
336,53754,Circle K,Circle K,,2525 MS-15 N  & US-278,US-278,Pontotoc,Columbus-Tupelo-West Point-Houston,MS,38863,34.286155262085,-89.025993347168,Y,Y,Y,2020-10-27 15:48:53.774,2020-10-27 15:48:54.496,2020-10-27 15:48:54.829,2.67,1.0,0.55,1,2021-09-09 20:00:00.000,2021-09-10 19:23:01.000
337,191910,East Side Quick Stop,76,,385 E Oxford,S Martin Luther King Dr,Pontotoc,Columbus-Tupelo-West Point-Houston,MS,38863,34.2522246,-88.9762371,Y,Y,Y,2020-10-10 22:21:33.931,2020-10-10 22:21:33.931,,,0.0,3.6,1,2021-09-08 20:00:00.000,2021-09-10 19:23:01.000
338,137093,Griggs Grocery & Deli,,,742 Romie Hill Ave  ,Cowden St,Shannon,Columbus-Tupelo-West Point-Houston,MS,38868-9751,34.119023071407,-88.719068169594,Y,Y,Y,,,,,0.0,3.92,1,2021-09-09 11:00:00.000,2021-09-10 19:23:01.000
339,149826,Hill Top Grocery,,Hill Top Grocery,6625 Noah Curtis St,Old US-45,Shannon,Columbus-Tupelo-West Point-Houston,MS,38868,34.104126,-88.66832,Y,Y,Y,,,,,0.0,0.27,1,2021-09-08 01:00:00.000,2021-09-10 19:23:01.000
340,85745,CITGO,CITGO,Kents,709 Lakeview Dr,Vance Rd,Grenada,Greenwood-Greenville,MS,38901,33.76917679855,-89.796195030212,Y,Y,Y,,,,,0.0,0.88,1,2021-09-09 17:00:00.000,2021-09-10 19:23:01.000
341,71705,Exxon,Exxon,The C Store,1595 Sunset Dr,Frontage Rd,Grenada,Greenwood-Greenville,MS,38901,33.783231525732,-89.833166599274,Y,Y,Y,2020-10-17 17:00:16.089,2020-10-17 17:00:16.089,2020-10-17 17:00:16.089,2.79,3.0,18.88,2,2021-09-09 16:00:00.000,2021-09-10 19:23:01.000
342,85911,Scott Petroleum,,,22360 MS-8 East , Middle Rd ,Grenada,Greenwood-Greenville,MS,38901,33.779254343232,-89.780423641205,Y,Y,Y,2020-11-24 02:05:14.822,2020-11-24 02:05:14.823,2020-11-24 02:05:14.823,2.75,2.0,1.03,1,2021-09-09 20:00:00.000,2021-09-10 19:23:01.000
343,53688,Sprint Mart,Sprint Mart,Sprint,1505 Sunset Dr,Kirk Ave,Grenada,Greenwood-Greenville,MS,38901,33.782736617343,-89.831857681274,Y,Y,Y,2020-11-18 21:11:52.654,2020-11-18 21:11:53.952,2020-11-18 21:11:53.360,2.77,3.0,1.22,1,2021-09-09 19:00:00.000,2021-09-10 19:23:01.000
344,200911,Pops,76,,527 MS-9 W,CR-275,Banner,Columbus-Tupelo-West Point-Houston,MS,38913,34.088557,-89.385327,Y,Y,Y,2020-11-22 02:07:18.876,2020-11-22 02:07:19.376,2020-11-22 02:07:19.127,,0.0,8.07,2,2021-08-27 17:00:00.000,2021-09-10 19:23:01.000
345,103304,Shell,Shell,,230 E Calhoun St,Murphree St,Bruce,Columbus-Tupelo-West Point-Houston,MS,38915,33.990932462077,-89.344081878662,Y,Y,Y,2020-10-10 22:37:09.166,2020-10-10 22:37:09.166,2020-10-10 22:37:09.166,2.77,3.0,,0,,2021-09-10 19:23:01.000
346,150403,Kings One Stop,,,Russell Ave,Madison St,Calhoun City,Columbus-Tupelo-West Point-Houston,MS,38916,33.855321,-89.308996,Y,Y,Y,,,,,0.0,1.55,1,2021-09-09 14:00:00.000,2021-09-10 19:23:01.000
347,153660,Texaco,Texaco,Mark's One Stop,601 N Main St,Seamans Ave,Calhoun City,Columbus-Tupelo-West Point-Houston,MS,38916,33.860066617771,-89.312826097012,Y,Y,Y,2020-10-10 22:47:40.434,2020-10-10 22:47:40.434,,,0.0,1.53,1,2021-09-07 02:00:00.000,2021-09-10 19:23:01.000
348,174567,Sayle Oil,,,410 W Main St,S Church St,Charleston,Greenwood-Greenville,MS,38921,34.007362,-90.059427,Y,Y,Y,,,,,0.0,1.0,1,2021-09-09 18:00:00.000,2021-09-10 19:23:01.000
349,92813,Scott Petroleum,,,412 MS-7 N,Grenada Blvd,Greenwood,Greenwood-Greenville,MS,38930,33.521572,-90.15184,Y,Y,Y,,,,,0.0,0.58,1,2021-09-08 20:00:00.000,2021-09-10 19:23:01.000
350,103431,Double Quick,,,814 US-82 W,Strong Ave,Greenwood,Greenwood-Greenville,MS,38930,33.516960733532,-90.203332901001,Y,Y,Y,,,,,0.0,1.46,1,2021-09-09 21:00:00.000,2021-09-10 19:23:01.000
351,92807,Gas Mart,,Nookie's,8368 MS-7 S,Tuscahoma St,Holcomb,Greenwood-Greenville,MS,38940,33.764307046898,-89.976139068604,Y,Y,Y,2020-11-02 21:11:49.072,2020-11-02 21:11:49.072,2020-11-02 21:11:49.072,,0.0,10.14,2,2021-09-09 14:00:00.000,2021-09-10 19:23:01.000
352,103674,Shell,Shell,,118 Humphreys St,Dewey St,Itta Bena,Greenwood-Greenville,MS,38941,33.495173652326,-90.321274995804,Y,Y,Y,,,,,0.0,2.04,1,2021-08-29 03:00:00.000,2021-09-10 19:23:01.000
353,92831,Shell,Shell,,700 MS-7,MS-315,Water Valley,Columbus-Tupelo-West Point-Houston,MS,38965,34.169168517744,-89.642815589905,Y,Y,Y,2020-11-22 02:07:10.426,2020-11-22 02:07:11.814,2020-11-22 02:07:11.376,,0.0,2.72,1,2021-09-09 23:00:00.000,2021-09-10 19:23:01.000
354,104165,Chevron,Chevron,Triple Stop,223 N Applegate Dr,Middleton Rd,Winona,Columbus-Tupelo-West Point-Houston,MS,38967,33.486413080932,-89.73624765873,Y,Y,Y,,,,2.77,3.0,6.37,2,2021-09-09 21:00:00.000,2021-09-10 19:23:01.000
355,163576,Double Quick,,,407 Church St,Lowery St,Belzoni,"Jackson, MS",MS,39038,33.181049456672,-90.48819154501,Y,Y,Y,,,,,0.0,1.02,1,2021-09-09 21:00:00.000,2021-09-10 19:23:01.000
356,83175,Circle K,Kangaroo,,1691 W Government St,Mar-Lyn Dr,Brandon,"Jackson, MS",MS,39042,32.283413871575,-90.030920505524,Y,Y,Y,2021-05-16 13:28:24.105,,2021-05-16 13:28:27.177,2.66,1.0,0.94,1,2021-09-09 22:00:00.000,2021-09-10 19:23:01.000
357,25615,Mobil,Mobil,Kangaroo Express,2145 MS-18,Boyce Thompson Dr,Brandon,"Jackson, MS",MS,39042,32.274735413531,-90.035700201988,Y,Y,Y,2021-05-19 12:11:24.973,2021-05-15 22:23:05.175,2021-05-19 12:11:24.973,,0.0,2.02,1,2021-09-09 23:00:00.000,2021-09-10 19:23:01.000
358,115632,Circle K,Circle K,,2166 MS-18 ,Orleans Way,Brandon,"Jackson, MS",MS,39042,32.272900744232,-90.036821365356,Y,Y,Y,2021-05-19 12:21:48.658,2021-05-19 12:21:48.658,2021-05-19 12:21:48.658,2.67,1.0,6.83,2,2021-09-09 23:00:00.000,2021-09-10 19:23:01.000
359,195324,Exxon,Exxon,Star Mart,1032 Hwy 471,Luckney Rd,Brandon,"Jackson, MS",MS,39042,32.295121481974,-89.996550679206,Y,Y,Y,2021-05-21 17:50:44.694,2021-05-21 17:50:45.744,2021-05-21 17:50:45.176,,0.0,2.04,1,2021-09-09 23:00:00.000,2021-09-10 19:23:01.000
360,92828,Circle K,Pilot,Pilot,510 E Main St,Norfleet Dr,Senatobia,Memphis,MS,38668,34.619826768854,-89.95297551155,Y,Y,Y,2020-11-06 18:55:15.483,2020-11-06 18:55:16.380,2020-11-06 18:55:16.081,2.55,1.0,9.01,2,2021-09-09 22:00:00.000,2021-09-10 19:23:01.000
361,53760,Shell,Shell,Circle K ,35 E Goodman Rd,Airways Blvd,Southaven,Memphis,MS,38671,34.962310390037,-89.98935431242,Y,Y,Y,2021-05-19 17:57:40.724,2021-05-19 17:57:44.255,2021-05-19 17:57:43.489,2.72,2.0,4.09,1,2021-09-09 23:00:00.000,2021-09-10 19:23:01.000
362,104087,CITGO,CITGO,,624 Rasco Rd W,Ellen Dr,Southaven,Memphis,MS,38671,34.977652469792,-90.000799298286,Y,Y,Y,2021-05-12 19:57:31.949,2021-05-12 19:57:31.949,,,0.0,0.88,1,2021-09-09 22:00:00.000,2021-09-10 19:23:01.000
363,103155,Kroger,Kroger,,3095 Goodman Rd E,Getwell Rd,Southaven,Memphis,MS,38672,34.96193757444,-89.934672117233,Y,Y,Y,2021-05-13 00:33:26.212,2021-05-13 00:33:28.328,2021-05-13 00:33:27.776,,0.0,1.5,1,2021-09-09 19:00:00.000,2021-09-10 19:23:01.000
364,200906,Dees Oil,Dees Oil,,1670 Old US-61 S,Hickory Hill Dr,Tunica,Memphis,MS,38676,34.67526,-90.385041,Y,Y,Y,,,,,0.0,,0,,2021-09-10 19:23:01.000
365,156957,Marathon,Marathon,Watson's,2066 US-61,Prichard Rd,Tunica,Memphis,MS,38676,34.700351153695,-90.375144481659,Y,Y,Y,2020-10-24 18:46:22.124,2020-10-24 18:46:23.226,2020-10-24 18:46:22.643,,0.0,1.52,1,2021-09-09 18:00:00.000,2021-09-10 19:23:01.000
366,119360,Marathon,Marathon,Watkins Grocery,59 Victoria Rd,MS-178,Victoria,Memphis,MS,38679,34.844107789448,-89.616830348969,Y,Y,Y,2021-05-12 00:16:39.676,2021-05-12 00:16:39.676,2021-05-12 00:16:39.676,,0.0,24.29,2,2021-09-06 22:00:00.000,2021-09-10 19:23:01.000
367,146966,Valero,Valero,Handy Food Store,6520 MS-161,Delta View Rd,Walls,Memphis,MS,38680,34.955224,-90.149842,Y,Y,Y,2020-10-10 16:25:09.838,2020-10-10 16:25:09.838,2020-10-10 16:25:09.838,,0.0,1.07,1,2021-09-09 20:00:00.000,2021-09-10 19:23:01.000
368,103424,Exxon,Exxon,,2405 US-82 E,S Beauchamp Ave,Greenville,Greenwood-Greenville,MS,38701,33.399588960952,-91.019303798676,Y,Y,Y,,,,,0.0,0.68,1,2021-09-09 23:00:00.000,2021-09-10 19:23:01.000
369,156358,Double Quick,,,605 W Alexander,Broadway ,Greenville,Greenwood-Greenville,MS,38701,33.4118748,-91.0571603,Y,Y,Y,,,,,0.0,2.02,1,2021-09-09 14:00:00.000,2021-09-10 19:23:01.000
370,170148,On The Go,,,188 Hwy 61 North,Schafer St,Boyle,Greenwood-Greenville,MS,38730,33.705143,-90.718532,Y,Y,Y,2020-10-23 10:21:15.733,2020-10-23 10:21:16.392,2020-10-23 10:21:15.393,2.71,2.0,9.43,2,2021-09-08 20:00:00.000,2021-09-10 19:23:01.000
371,104059,Scott Petroleum,,,144 US-82 E,Moody St,Indianola,Greenwood-Greenville,MS,38751,33.457782825653,-90.648666501029,Y,Y,Y,,,,2.96,5.0,0.55,1,2021-09-09 03:00:00.000,2021-09-10 19:23:01.000
372,139278,Inverness Money Market,,,609 Old US-49,2nd St,Inverness,Greenwood-Greenville,MS,38753,33.35220821545,-90.590190589428,Y,Y,Y,,,,,0.0,,0,,2021-09-10 19:23:01.000
373,163577,Double Quick,,,23549 US-49S,S Belzoni St,Isola,"Jackson, MS",MS,38754,33.253869435946,-90.584297776222,Y,Y,Y,,,,,0.0,1.27,1,2021-09-08 23:00:00.000,2021-09-10 19:23:01.000
374,143727,Fratesi Grocery,,,1402 US-82 E,Frazier Rd,Leland,Greenwood-Greenville,MS,38756,33.408104847905,-90.858440995216,Y,Y,Y,2020-10-27 12:45:27.897,2020-10-27 12:45:28.656,,,0.0,46.71,3,2021-09-08 16:00:00.000,2021-09-10 19:23:01.000
375,193529,Bob's Express,,,100 N Edwards Ave,W MLK Jr Dr,Mound Bayou,Greenwood-Greenville,MS,38762,33.879844311485,-90.727821439504,Y,Y,Y,,,,,0.0,0.73,1,2021-09-02 23:00:00.000,2021-09-10 19:23:01.000
376,53773,Shell,Shell,Sprint Mart 4,792 E Main St,S Veterans,Tupelo,Columbus-Tupelo-West Point-Houston,MS,38804,34.257110032203,-88.684344291687,Y,Y,Y,2021-05-12 16:22:29.055,2020-11-04 23:08:13.197,2020-11-04 23:08:12.730,2.68,1.0,1.0,1,2021-09-09 20:00:00.000,2021-09-10 19:23:01.000
377,104133,Chevron,Chevron,,850 N Gloster St,McCullough,Tupelo,Columbus-Tupelo-West Point-Houston,MS,38804,34.270190936802,-88.715404272079,Y,Y,Y,2020-10-31 04:36:11.782,2020-10-31 04:36:11.254,2020-10-18 16:10:09.133,,0.0,1.76,1,2021-09-09 22:00:00.000,2021-09-10 19:23:01.000
378,139607,Chevron,Chevron,Key Mart,1368 Auburn Road,Dr 1067,Tupelo,Columbus-Tupelo-West Point-Houston,MS,38804,34.278690993137,-88.637073040009,Y,Y,Y,2020-10-24 20:35:29.842,2020-10-24 20:35:31.443,2020-10-24 20:35:29.234,2.71,2.0,5.38,2,2021-09-09 21:00:00.000,2021-09-10 19:23:01.000
379,108605,Texaco,Texaco,,206 US-278 E ,3rd St S ,Amory,Columbus-Tupelo-West Point-Houston,MS,38821,33.97991548932,-88.483715057373,Y,Y,Y,2020-10-10 22:41:26.586,2020-10-10 22:41:26.586,2020-10-10 22:41:26.586,,0.0,0.85,1,2021-09-07 16:00:00.000,2021-09-10 19:23:01.000
380,103300,Big V,Dees Oil,Big V,2900 E Chambers Dr,Whitley Rd,Booneville,Columbus-Tupelo-West Point-Houston,MS,38829,34.645375207109,-88.527660369873,Y,Y,Y,,,,,0.0,8.03,2,2021-09-07 19:00:00.000,2021-09-10 19:23:01.000
381,142716,Burton One Stop,Dees Oil,,1137 MS-30 E,CR-3501,Booneville,Columbus-Tupelo-West Point-Houston,MS,38829,34.629335,-88.345752,Y,Y,Y,,,,,0.0,6.73,2,2021-09-06 17:00:00.000,2021-09-10 19:23:01.000
382,53660,Bali's,,,105 S Harper Rd,Proper St,Corinth,Memphis,MS,38834,34.929956785226,-88.495015203953,Y,Y,Y,,,,,0.0,1.67,1,2021-09-08 20:00:00.000,2021-09-10 19:23:01.000
383,53669,Blue Sky,,,2105 US-72 W,US-45,Corinth,Memphis,MS,38834,34.930735233295,-88.544743359089,Y,Y,Y,2021-05-12 21:13:49.207,2021-05-12 21:13:49.207,,,0.0,0.83,1,2021-09-09 21:00:00.000,2021-09-10 19:23:01.000
384,125037,Shell,Shell,Sprint Mart,1605 S Adams St,Country Club Rd,Fulton,Columbus-Tupelo-West Point-Houston,MS,38843,34.247971477703,-88.403667211533,Y,Y,Y,2021-05-12 19:28:49.747,2021-05-12 19:28:49.747,2021-05-12 19:28:49.747,2.68,1.0,11.52,2,2021-09-09 21:00:00.000,2021-09-10 19:23:01.000
385,168047,Texaco,Texaco,,1 Country Club Rd,S Adams St,Fulton,Columbus-Tupelo-West Point-Houston,MS,38843,34.24567,-88.401704,Y,Y,Y,2021-05-13 18:56:12.930,2021-05-13 18:56:12.930,2021-05-13 18:56:12.930,2.75,2.0,0.73,1,2021-09-08 20:00:00.000,2021-09-10 19:23:01.000
386,186917,Westside Service Station,,,210 W Madison St,Pontotoc Street,Houston,Columbus-Tupelo-West Point-Houston,MS,38851,33.896873,-89.002106,Y,Y,Y,2020-11-24 21:05:34.660,2020-11-24 21:05:34.670,2020-11-24 21:05:34.670,2.75,2.0,0.83,1,2021-09-07 20:00:00.000,2021-09-10 19:23:01.000
387,188702,First Stop,,,3892 MS-178,CR-1557,Mooreville,Columbus-Tupelo-West Point-Houston,MS,38857,34.26655866468,-88.552897274494,Y,Y,Y,,,,,0.0,1.0,1,2021-09-06 18:00:00.000,2021-09-10 19:23:01.000
388,103911,Chevron,Chevron,,107 Metts Rd,US-45,Nettleton,Columbus-Tupelo-West Point-Houston,MS,38858,34.073620860161,-88.627953529358,Y,Y,Y,2020-10-10 22:38:45.246,2020-10-10 22:38:45.246,2020-10-10 22:38:45.246,,0.0,1.0,1,2021-09-09 12:00:00.000,2021-09-10 19:23:01.000
389,188193,Exxon,Exxon,,30119 Central Grove Rd,US-45-278,Nettleton,Columbus-Tupelo-West Point-Houston,MS,38858,34.025267710532,-88.631377369165,Y,Y,Y,2020-10-10 22:39:04.144,2020-10-10 22:39:04.144,2020-10-10 22:39:04.144,,0.0,2.2,1,2021-08-30 16:00:00.000,2021-09-10 19:23:01.000
390,201216,Texaco,Texaco,,29001 Ranch Rd 12,DS Ranch Rd,Brandon,"Columbia, SC",MS,29001,30.216058,-98.084089,Y,Y,Y,2021-03-09 04:23:12.270,2021-03-09 04:23:12.928,2021-03-09 04:23:10.199,2.89,4.0,1.0,1,2021-09-09 21:00:00.000,2021-09-10 19:23:01.000
391,198507,Plantersville Mini Mart,,,18656-18760 AL-22,Oak St,Plantersville,Montgomery-Selma,MS,36758,32.657027,-86.932948,Y,Y,Y,,,,,0.0,11.47,2,2021-09-09 16:00:00.000,2021-09-10 19:23:01.000
392,104067,CITGO,CITGO,,16226 Boundary Dr,MS-370,Ashland,Memphis,MS,38603,34.833545203699,-89.187902212143,Y,Y,Y,2020-10-10 17:54:35.918,2020-10-10 17:54:35.918,2020-10-10 17:54:35.918,,0.0,1.05,1,2021-09-06 03:00:00.000,2021-09-10 19:23:01.000
393,103312,Chevron,Chevron,,101 James St,Broadway,Batesville,Memphis,MS,38606,34.322665659804,-89.946248531342,Y,Y,Y,2020-11-18 19:25:50.672,2020-11-18 19:25:50.672,,,0.0,2.13,1,2021-09-09 21:00:00.000,2021-09-10 19:23:01.000
394,124720,Spirit,Shell,Maggies Food & Fuel,715 MS-35 N,I-55,Batesville,Memphis,MS,38606,34.351160313482,-89.916894435883,Y,Y,Y,2020-11-06 13:19:02.728,2020-11-06 13:19:02.729,2020-11-06 13:19:02.728,2.89,4.0,1.04,1,2021-09-09 13:00:00.000,2021-09-10 19:23:01.000
395,113849,Shell,Shell,,112 N Guyton Blvd,Hickory St,Blue Mountain,Memphis,MS,38610,34.672120384205,-89.025942385197,Y,Y,Y,2020-11-12 16:29:23.776,2020-11-12 16:29:23.776,2020-11-12 16:29:23.776,,0.0,0.36,1,2021-09-09 23:00:00.000,2021-09-10 19:23:01.000
396,92789,Kroger,Kroger,,870 S State St,Anderson Blvd,Clarksdale,Memphis,MS,38614,34.185032186923,-90.588321089745,Y,Y,Y,2020-10-29 04:14:05.079,2020-10-29 04:14:05.695,,,0.0,0.5,1,2021-09-06 20:00:00.000,2021-09-10 19:23:01.000
397,193526,Rankin Oil,,Quality Radiator,1505 N State St,Page Ave,Clarksdale,Memphis,MS,38614-6550,34.196520334051,-90.557710379362,Y,Y,Y,,,,,0.0,1.02,1,2021-09-08 19:00:00.000,2021-09-10 19:23:01.000
398,103582,BP,BP,,665 E Commerce St,McCracken Rd,Hernando,Memphis,MS,38632,34.823629713726,-89.977996498346,Y,Y,Y,2020-10-12 17:56:39.140,2020-10-20 02:33:35.957,,2.89,4.0,1.23,1,2021-09-09 23:00:00.000,2021-09-10 19:23:01.000
399,53705,Shell,Shell,,621 MS-7 S ,US-78,Holly Springs,Memphis,MS,38635,34.752226534268,-89.452421665192,Y,Y,Y,2020-11-21 17:12:53.157,2020-11-21 17:12:53.143,2020-11-21 17:12:53.157,,0.0,3.6,1,2021-09-09 23:00:00.000,2021-09-10 19:23:01.000
400,103152,Shell,Shell,,950 MS-7 S,US-78 ,Holly Springs,Memphis,MS,38635,34.744208,-89.457293,Y,Y,Y,2020-11-21 17:07:41.267,2020-11-21 17:07:42.198,2020-11-21 17:07:41.781,2.59,1.0,,0,,2021-09-10 19:23:01.000
401,70849,KwikShop,Kwik Shop,,3950 Goodman Rd W,Horn Lake Rd,Horn Lake,Memphis,MS,38637,34.963091828113,-90.060038566589,Y,Y,Y,2020-10-16 04:41:54.828,2020-10-16 04:41:55.070,,,0.0,2.02,1,2021-09-09 22:00:00.000,2021-09-10 19:23:01.000
402,191911,Bullfrog Market,Dees Oil,,6861 Hwy 51 N,Dancy Blvd,Horn Lake,Memphis,MS,38637,34.959778,-90.0169111,Y,Y,Y,2020-09-18 14:29:16.963,2020-09-18 14:29:16.963,2020-09-18 14:29:16.964,,0.0,1.0,1,2021-09-09 23:00:00.000,2021-09-10 19:23:01.000
403,152610,Cotton Patch,Dees Oil,,4760 MS-7,US-72,Lamar,Memphis,MS,38642,34.94503331987,-89.297411441803,Y,Y,Y,2020-11-11 16:45:32.582,2020-11-11 16:45:33.894,2020-11-11 16:45:33.328,,0.0,31.0,3,2021-09-08 00:00:00.000,2021-09-10 19:23:01.000
404,156058,Alex's 8,Dees Oil,Marks Express,604 2nd St,Catchings Ave,Marks,Memphis,MS,38646,34.253076357879,-90.274528542328,Y,Y,Y,,,,,0.0,2.55,1,2021-09-09 22:00:00.000,2021-09-10 19:23:01.000
405,53732,Pilot,Pilot,,500 MS-15 S,US-78 ,New Albany,Columbus-Tupelo-West Point-Houston,MS,38652,34.468035373962,-89.006595611572,Y,Y,Y,2020-11-24 07:25:09.761,2020-11-24 07:25:11.911,2020-11-24 07:25:11.310,2.75,2.0,9.0,2,2021-09-09 22:00:00.000,2021-09-10 19:23:01.000
406,97972,Pure,Pure,Dave's One Stop,1014 W Bankhead St,Munsford Dr,New Albany,Columbus-Tupelo-West Point-Houston,MS,38652,34.510557177363,-89.036593437195,Y,Y,Y,,,,,0.0,1.13,1,2021-09-09 23:00:00.000,2021-09-10 19:23:01.000
407,93052,Kroger,Kroger,,2013 University Ave,MS-7,Oxford,Memphis,MS,38655,34.361773,-89.503249,Y,Y,Y,2021-05-16 18:36:00.472,2021-05-16 18:36:00.472,2021-05-16 18:36:00.472,2.79,3.0,1.08,1,2021-09-09 22:00:00.000,2021-09-10 19:23:01.000
408,191800,The Dam Store,,,25466–25652 Highway 315,Highway 315,Sardis,Memphis,MS,38666,34.425805,-89.835153,Y,Y,Y,,,,,0.0,0.21,1,2021-09-05 21:00:00.000,2021-09-10 19:23:01.000
409,203369,SHELL,Shell,State Line Shell,1935 Stateline Rd W,Assembly Dr,Southaven,Memphis,MS,38671,34.991314,-90.024376,Y,Y,Y,,,,,0.0,2.02,1,2021-09-08 06:00:00.000,2021-09-10 19:23:01.000
410,104035,CITGO,CITGO,,1115 US-61 S,Beat Line Rd,Tunica,Memphis,MS,38676,34.682988164508,-90.375554859638,Y,Y,Y,2020-10-24 18:48:03.363,2020-10-24 18:48:03.896,,,0.0,1.43,1,2021-09-09 12:00:00.000,2021-09-10 19:23:01.000
411,103144,Tunica Xpress,Dees Oil,,2515 MS-4 E,White Oak Rd,Tunica,Memphis,MS,38676,34.641209892213,-90.356765985489,Y,Y,Y,,,,,0.0,1.69,1,2021-09-05 17:00:00.000,2021-09-10 19:23:01.000
412,104037,BP,BP,,7910 MS-301 N,Desoto Rd,Walls,Memphis,MS,38680,34.97569909798,-90.095990896225,Y,Y,Y,2020-10-20 15:41:57.608,2020-10-20 15:41:57.609,,,0.0,2.11,1,2021-09-09 19:00:00.000,2021-09-10 19:23:01.000
413,169865,Tony`s 72,Dees Oil,,58 CR-610,US-72,Walnut,Memphis,MS,38683,34.934866308214,-88.774530887604,Y,Y,Y,2020-10-29 19:14:57.679,2020-10-29 19:14:58.558,2020-10-29 19:14:58.108,,0.0,1.97,1,2021-09-06 21:00:00.000,2021-09-10 19:23:01.000
414,103430,Double Quick,,Double Quick 109,509 US-82 E,Cedar St,Greenville,Greenwood-Greenville,MS,38701,33.399260238753,-91.044760644436,Y,Y,Y,2020-10-28 19:27:11.772,2020-10-21 05:29:18.541,2020-10-21 05:29:18.551,2.78,3.0,4.46,1,2021-09-09 12:00:00.000,2021-09-10 19:23:01.000
415,103423,Shell,Shell,,3195 US-82 E,Raceway Rd,Greenville,Greenwood-Greenville,MS,38703,33.399786014469,-91.006987094879,Y,Y,Y,2020-11-06 22:33:08.887,2020-11-06 22:33:08.888,2020-10-13 14:02:12.452,2.89,4.0,0.58,1,2021-09-09 20:00:00.000,2021-09-10 19:23:01.000
416,83815,Dodge's Store,,,714 N Davis Ave,Industrial Pkwy,Cleveland,Greenwood-Greenville,MS,38732,33.758076750542,-90.71545779705,Y,Y,Y,2020-10-12 22:33:07.125,2020-10-12 22:33:07.124,2020-10-12 22:33:07.125,2.67,1.0,1.0,1,2021-09-09 20:00:00.000,2021-09-10 19:23:01.000
417,179409,Scott's Petroleum,,,100 S Davis Ave,N St,Cleveland,Greenwood-Greenville,MS,38732,33.743944041932,-90.716094734125,Y,Y,Y,,,,,0.0,1.17,1,2021-09-09 21:00:00.000,2021-09-10 19:23:01.000
418,104044,Sonny's,CITGO,,4189 US-49 W,E Park Ave,Drew,Greenwood-Greenville,MS,38737,33.81230571601,-90.523717403412,Y,Y,Y,2020-10-19 06:32:56.842,2020-10-19 06:32:58.043,2020-10-19 06:32:57.458,,0.0,1.02,1,2021-09-06 21:00:00.000,2021-09-10 19:23:01.000
419,141742,Rick's Express,CITGO,,1321 East Ave N,Opal St,Hollandale,Greenwood-Greenville,MS,38748,33.185149976093,-90.856250971556,Y,Y,Y,,,,,0.0,14.56,2,2021-09-07 18:00:00.000,2021-09-10 19:23:01.000
420,103671,Shell,Shell,,509 N Sunflower Ave,US-82,Indianola,Greenwood-Greenville,MS,38751,33.457730798105,-90.644953250885,Y,Y,Y,,,,,0.0,1.03,1,2021-09-09 21:00:00.000,2021-09-10 19:23:01.000
421,204640,Royal Grocery,Exxon,,10727 MS-6,Juba Rd,Pontotoc,Columbus-Tupelo-West Point-Houston,MS,38863,34.286971,-89.175682,Y,Y,Y,,,,,0.0,,0,,2021-09-10 19:23:01.000
422,160379,Texaco,,,448 W Oxford St,Sallie Hardin Rd,Pontotoc,Columbus-Tupelo-West Point-Houston,MS,38863,34.25165,-89.03023,Y,Y,Y,2020-10-10 22:23:37.639,2020-10-10 22:23:37.639,,,0.0,0.68,1,2021-09-06 18:00:00.000,2021-09-10 19:23:01.000
423,188241,Warrior Express,Dees Oil,,200 W Oxford St,Industrial Dr,Pontotoc,Columbus-Tupelo-West Point-Houston,MS,38863,34.254477053821,-89.009505808353,Y,Y,Y,,,,,0.0,1.67,1,2021-09-09 18:00:00.000,2021-09-10 19:23:01.000
424,204316,Valero,Valero,,5105 MS-9,S Pontotoc Rd,Pontotoc,Columbus-Tupelo-West Point-Houston,MS,38863,34.231709,-89.102683,Y,Y,Y,,,,,0.0,1.47,1,2021-09-09 20:00:00.000,2021-09-10 19:23:01.000
425,156898,Texaco,Texaco,,63426 MS-25 N,Olive St,Smithville,Columbus-Tupelo-West Point-Houston,MS,38870,34.069385,-88.394001,Y,Y,Y,2021-05-13 17:59:26.865,2021-05-13 17:59:26.865,,,0.0,1.0,1,2021-09-09 18:00:00.000,2021-09-10 19:23:01.000
426,121699,Phillips 66,Phillips 66,"Papa ""V's""",5053 Raymond Ave,Palmetto Rd,Verona,Columbus-Tupelo-West Point-Houston,MS,38879,34.19212760047,-88.720124959946,Y,Y,Y,2020-10-10 22:18:18.642,2020-10-10 22:18:18.642,2020-10-10 22:18:18.642,,0.0,48.09,3,2021-09-09 18:00:00.000,2021-09-10 19:23:01.000
427,85910,QuikStop,,Scott Self Serve,1090 Fairfield Ave,Fairfield Ave,Grenada,Greenwood-Greenville,MS,38901,33.773315,-89.80882,Y,Y,Y,2020-11-24 01:58:55.426,2020-11-24 01:58:55.426,,2.67,1.0,1.0,1,2021-09-08 15:00:00.000,2021-09-10 19:23:01.000
428,85790,Sprint Mart,Sprint Mart,Penny Pincher,1546 Commerce St,Thomas St,Grenada,Greenwood-Greenville,MS,38901,33.76675,-89.8086,Y,Y,Y,2020-10-11 15:08:08.261,2020-10-11 15:08:09.234,2020-10-11 15:08:08.644,2.69,1.0,2.05,1,2021-09-09 23:00:00.000,2021-09-10 19:23:01.000
429,102524,Marathon,Marathon,Mr Jiffy,100 N Cossar St,Main St,Charleston,Greenwood-Greenville,MS,38921,34.007201,-90.048867,Y,Y,Y,2020-10-10 22:34:17.939,2020-10-10 22:34:17.939,2020-10-10 22:34:17.939,,0.0,1.13,1,2021-09-09 12:00:00.000,2021-09-10 19:23:01.000
430,92819,Murphy USA,Murphy USA,,505 Viola B Sanders Dr,US 82-49E,Greenwood,Greenwood-Greenville,MS,38930,33.52883,-90.21993,Y,Y,Y,2020-10-18 19:36:27.315,2020-11-12 19:03:54.312,2020-11-12 19:03:54.313,2.94,4.0,0.89,1,2021-09-09 01:00:00.000,2021-09-10 19:23:01.000
431,53686,Shell,Shell,,100 MS-7,Carrolton Ave,Greenwood,Greenwood-Greenville,MS,38930,33.517000985442,-90.152896642685,Y,Y,Y,,,,,0.0,48.34,3,2021-09-09 21:00:00.000,2021-09-10 19:23:01.000
432,53687,Shell,Shell,,109 W Claiborne,Grand Blvd,Greenwood,Greenwood-Greenville,MS,38930,33.523749624176,-90.18514752388,Y,Y,Y,2020-10-14 00:57:08.639,2020-10-14 00:57:09.243,,,0.0,0.97,1,2021-09-09 22:00:00.000,2021-09-10 19:23:01.000
433,123024,Lu's Food Market,,,3801 US-82 E,Billy Stone Rd,Greenwood,Greenwood-Greenville,MS,38930-9726,33.510547023327,-90.121665000916,Y,Y,Y,,,,,0.0,1.01,1,2021-09-08 18:00:00.000,2021-09-10 19:23:01.000
434,194917,CITGO,CITGO,Oakland Truck Stop,28142 HWY 32,US I-55,Oakland,Columbus-Tupelo-West Point-Houston,MS,38948,34.077776268696,-89.891445636749,Y,Y,Y,2020-10-12 06:02:17.646,2020-10-20 01:53:40.132,2020-10-12 06:02:18.246,2.77,2.0,3.88,1,2021-09-08 22:00:00.000,2021-09-10 19:23:01.000
435,103221,Exxon,Exxon,Lott's Exxon,615 Middleton Rd,Shirley Ave,Winona,Columbus-Tupelo-West Point-Houston,MS,38967,33.487464467871,-89.738251268864,Y,Y,Y,,,,2.99,5.0,1.02,1,2021-09-09 17:00:00.000,2021-09-10 19:23:01.000
436,189633,Quick 7,,,308–326 N US-49 W,MS-12,Belzoni,"Jackson, MS",MS,39038,33.175653,-90.49726,Y,Y,Y,,,,,0.0,2.8,1,2021-09-09 20:00:00.000,2021-09-10 19:23:01.000
437,104209,Chevron,CEFCO,,103 Grants Ferry Rd,Spillway Rd,Brandon,"Jackson, MS",MS,39042,32.371476658516,-90.016844272614,Y,Y,Y,2021-06-16 19:20:44.689,2021-06-16 19:20:46.054,2021-06-16 19:20:45.391,,0.0,1.02,1,2021-09-09 21:00:00.000,2021-09-10 19:23:01.000
