,gb_smid,stationname,brandname,stationalias,address,cross2,cityshort,dma,state,postalcode,lat,long,has_fuel,has_power,has_diesel,has_fuel_update_date,has_power_update_date,has_diesel_update_date,avgprice,price_groups,avg_wait_time,avg_wait_time_grp,wait_observed_time,observed_date
2106,92710,Exxon,Exxon,Brother's,3528 S I-10 Service Rd W,N Arnoult Rd,Metairie,New Orleans,LA,70001,29.997344,-90.161204,N,N,Y,2021-09-09 22:54:10.161,2021-09-09 22:54:10.676,,,0.0,1.12,1,2021-09-09 20:00:00.000,2021-09-10 19:23:01.000
2107,94075,Discount Zone,,,4457 W Metairie Ave,Clearview Parkway,Metairie,New Orleans,LA,70001,29.982991091101,-90.179789811373,Y,Y,Y,2021-09-06 19:58:50.545,2021-09-06 19:58:51.525,,2.91,4.0,2.38,1,2021-09-09 23:00:00.000,2021-09-10 19:23:01.000
2108,154907,Valero,Valero,Birdies,1919 Airline Dr,N Labarre Rd,Metairie,New Orleans,LA,70001,29.97426144873,-90.147510766983,Y,Y,Y,2021-08-30 23:47:17.515,2021-08-30 23:47:17.515,2018-09-15 17:55:00.767,,0.0,1.45,1,2021-09-09 23:00:00.000,2021-09-10 19:23:01.000
2109,56152,Shell,Shell,,3200 Veterans Blvd,Causeway Blvd,Metairie,New Orleans,LA,70002,30.002721344956,-90.15563249588,Y,Y,Y,2021-09-09 00:04:42.728,2021-09-09 00:04:42.728,2021-09-09 00:04:42.728,,0.0,1.42,1,2021-09-09 23:00:00.000,2021-09-10 19:23:01.000
2110,134792,Espanade Discount One,,,3652 W Esplanade Ave,Division St,Metairie,New Orleans,LA,70002,30.0146065,-90.1639446,Y,Y,Y,2021-09-08 13:28:58.360,2021-09-08 13:28:58.360,,,0.0,1.0,1,2021-09-09 21:00:00.000,2021-09-10 19:23:01.000
2134,85944,Airline Discount,,,3451 Airline Dr,Severn Ave,Metairie,New Orleans,LA,70001,29.975142,-90.16097,N,N,Y,2021-08-31 17:30:36.394,2021-08-31 17:30:36.751,,,0.0,0.78,1,2021-09-09 23:00:00.000,2021-09-10 19:23:01.000
2135,56153,Shell,Shell,,900 Clearview Pkwy,W Metairie Ave,Metairie,New Orleans,LA,70001,29.983009677208,-90.180496573448,N,Y,Y,2021-09-01 13:53:47.980,2021-09-04 23:36:10.578,,,0.0,1.68,1,2021-09-09 23:00:00.000,2021-09-10 19:23:01.000
2136,91390,Exxon,Exxon,,3140 Veterans Memorial Blvd,N Causeway Blvd,Metairie,New Orleans,LA,70002,30.002591268214,-90.154709815979,N,N,N,2021-09-02 18:21:19.567,2021-09-02 18:21:19.567,2021-09-02 18:21:19.567,,0.0,1.44,1,2021-09-09 23:00:00.000,2021-09-10 19:23:01.000
2137,56144,Discount Zone,,,8000 W Metairie Ave,N Howard Ave,Metairie,New Orleans,LA,70003,29.98550327689,-90.2197265625,Y,Y,Y,2021-09-07 19:07:38.716,2021-09-07 19:07:39.898,2021-09-07 19:07:39.663,,0.0,5.01,2,2021-09-09 23:00:00.000,2021-09-10 19:23:01.000
2138,134911,Rouses Express,,,3711 Power Blvd,Riverside dr,Metairie,New Orleans,LA,70003,30.0110532,-90.221899,Y,Y,Y,,,,,0.0,1.41,1,2021-09-09 23:00:00.000,2021-09-10 19:23:01.000
2139,151520,Chevron,Chevron,Food Mart,Old US-90,US-90,Des Allemands,New Orleans,LA,70030,29.825408,-90.465365,N,N,N,2021-09-10 15:40:58.339,2021-09-10 15:40:58.339,2021-09-10 15:40:58.339,,0.0,1.07,1,2021-09-09 12:00:00.000,2021-09-10 19:23:01.000
2140,203666,Joe's Landing,Conoco,,4811 Privateer Blvd,Flo Ln,Barataria,New Orleans,LA,70036,29.685289,-90.101811,Y,Y,Y,,,,,0.0,8.45,2,2021-09-07 16:00:00.000,2021-09-10 19:23:01.000
2141,169142,Express Food & Fuel,,,14715 LA-23,Windmill Ln,Belle Chasse,New Orleans,LA,70037,29.702507826226,-89.988125860691,Y,Y,Y,,,,,0.0,1.25,1,2021-09-07 15:00:00.000,2021-09-10 19:23:01.000
2142,67390,Murphy USA,Murphy USA,,12953 US-90,Coronado St,Boutte,New Orleans,LA,70039,29.90612,-90.370468,N,N,N,2021-09-07 19:53:56.655,2021-09-07 19:53:56.655,2021-09-07 19:53:56.655,,0.0,0.67,1,2021-09-09 22:00:00.000,2021-09-10 19:23:01.000
2143,101529,Marathon,,Ponstein's,3523 Paris Rd,E Genie St,Chalmette,New Orleans,LA,70043,29.951818595278,-89.958763718605,Y,Y,Y,2021-09-03 21:00:23.416,2021-09-03 21:00:23.417,2019-07-15 21:45:50.495,,0.0,2.94,1,2021-09-09 22:00:00.000,2021-09-10 19:23:01.000
2144,176870,RaceTrac,RaceTrac,,8130 W Judge Perez Dr,Dr Meraux Blvd,Chalmette,New Orleans,LA,70043,29.955157645271,-89.984400272369,Y,Y,Y,2021-09-09 23:08:21.927,2021-09-09 23:08:21.928,2021-09-09 23:08:21.928,2.74,2.0,2.53,1,2021-09-09 23:00:00.000,2021-09-10 19:23:01.000
2145,165072,RaceTrac,,,2713 Paris Rd,E Morales St,Chalmette,New Orleans,LA,70043,29.943458393878,-89.963036477566,Y,Y,Y,2021-09-10 00:14:01.829,2021-09-10 00:14:02.825,2021-09-10 00:14:02.341,2.74,2.0,0.96,1,2021-09-09 23:00:00.000,2021-09-10 19:23:01.000
2146,56102,Circle K,Circle K,,929 Lafayette St,10th St,Gretna,New Orleans,LA,70053,29.91273259355,-90.05842924118,N,N,Y,2021-09-02 13:22:35.214,2021-09-01 11:38:24.627,,,0.0,1.0,1,2021-09-09 22:00:00.000,2021-09-10 19:23:01.000
2147,39241,Shell,Shell,,101 Westbank Expy,Terry Pkwy,Terrytown,New Orleans,LA,70056,29.925314163342,-90.039632320404,N,N,N,2021-08-31 18:56:29.382,2021-08-31 18:56:32.814,2021-08-31 18:56:31.037,2.99,5.0,3.79,1,2021-09-09 23:00:00.000,2021-09-10 19:23:01.000
2148,56120,Discount Zone,,,2120 Lapalco Blvd,Manhattan Blvd,Harvey,New Orleans,LA,70058,29.874057333753,-90.052496194839,N,N,N,2021-09-08 13:54:39.670,2021-09-08 13:54:39.670,2021-09-08 13:54:39.670,,0.0,0.62,1,2021-09-09 21:00:00.000,2021-09-10 19:23:01.000
2149,56118,Shell,Shell,,3659 Lapalco Blvd,Woodmere Blvd,Harvey,New Orleans,LA,70058,29.872046114587,-90.082016322754,Y,Y,Y,2021-09-06 15:31:50.046,2021-09-06 15:31:50.046,2021-09-04 19:01:39.068,,0.0,1.24,1,2021-09-09 23:00:00.000,2021-09-10 19:23:01.000
2150,85268,Pelican Food Store,,,2210 Airline Hwy ,Clay St,Kenner,New Orleans,LA,70062,29.979899559442,-90.241806507111,Y,Y,Y,2021-09-06 18:53:36.646,2021-09-06 18:53:36.646,,3.29,5.0,1.02,1,2021-09-09 23:00:00.000,2021-09-10 19:23:01.000
2151,56131,Shell,Shell,Airport,1205 Airline Hwy,Airport Access Rd,Kenner,New Orleans,LA,70062,29.981405066835,-90.25496006012,N,Y,Y,2021-09-02 00:08:34.431,2021-09-05 23:45:48.760,,2.99,5.0,1.5,1,2021-09-09 22:00:00.000,2021-09-10 19:23:01.000
2152,113929,Exxon,Exxon,,1227 Veterans Blvd,Marietta Ave,Kenner,New Orleans,LA,70062,30.006258,-90.251951,N,Y,N,2021-08-31 20:05:52.947,,2021-08-31 20:05:54.447,,0.0,2.06,1,2021-09-09 23:00:00.000,2021-09-10 19:23:01.000
2153,132234,Star Gas & Cafe,,,2023-2025 Williams Blvd,21st St,Kenner,New Orleans,LA,70062,29.993282454582,-90.241986215115,Y,Y,Y,2021-09-07 18:44:36.852,2021-09-07 18:44:38.523,2021-09-07 18:44:37.731,,0.0,8.36,2,2021-09-09 23:00:00.000,2021-09-10 19:23:01.000
2154,134762,Valero,Valero,,3940 Williams Blvd,Granada,Kenner,New Orleans,LA,70065,30.028380292189,-90.238351821899,Y,N,Y,2021-09-05 17:24:44.814,2021-09-05 17:24:44.813,,,0.0,2.0,1,2021-09-09 23:00:00.000,2021-09-10 19:23:01.000
2155,56135,Shell,Shell,,2012 W Airline Hwy,Magnolia Ave,Laplace,New Orleans,LA,70068,30.074943321888,-90.50749540329,N,N,Y,2021-09-02 23:06:35.755,2021-09-02 23:06:35.755,,,0.0,2.08,1,2021-09-09 23:00:00.000,2021-09-10 19:23:01.000
2156,112403,Cheap Smokes,,,1600 W Airline Hwy,Carrollwood Ave,Laplace,New Orleans,LA,70068,30.072845020733,-90.496530532837,Y,Y,Y,2021-09-07 21:16:25.729,2021-09-07 21:16:29.882,,,0.0,1.39,1,2021-09-09 23:00:00.000,2021-09-10 19:23:01.000
2157,105581,RaceTrac,RaceTrac,131,200 W Airline Hwy,US-51,Laplace,New Orleans,LA,70068,30.067524792275,-90.481585264206,N,N,Y,2021-09-04 19:25:07.082,2021-09-04 19:25:08.068,2021-09-06 13:18:18.258,,0.0,1.59,1,2021-09-09 23:00:00.000,2021-09-10 19:23:01.000
2158,112338,Shell,Shell,LaPlace Travel Cente,4325 US Highway 51, I-10,LaPlace,New Orleans,LA,70068,30.09010887,-90.43927765,N,N,N,2021-09-02 16:38:28.814,2021-09-02 16:38:27.306,2021-09-02 16:38:29.561,,0.0,1.0,1,2021-09-09 23:00:00.000,2021-09-10 19:23:01.000
2159,112347,Stop and Save,,,805 Newport Dr,Yorktowne Dr,Laplace,New Orleans,LA,70068,30.083837,-90.479257,Y,Y,Y,2021-08-30 18:41:40.436,2021-08-30 18:41:40.436,,,0.0,1.0,1,2021-09-09 22:00:00.000,2021-09-10 19:23:01.000
2160,85035,Texaco,,,7101 Westbank Expy,Westwood Dr,Marrero,New Orleans,LA,70072,29.893071289757,-90.125535428524,N,N,N,2021-09-02 07:12:40.419,2021-09-02 07:12:40.420,2021-09-02 07:12:40.420,2.93,4.0,1.29,1,2021-09-09 23:00:00.000,2021-09-10 19:23:01.000
2161,126948,Chevron,Chevron,,4700 Lapalco Blvd,Parlange Dr,Marrero,New Orleans,LA,70072,29.874996953914,-90.09153842926,N,N,Y,2021-09-03 02:06:47.103,2021-09-01 11:59:15.582,,2.99,5.0,1.0,1,2021-09-09 23:00:00.000,2021-09-10 19:23:01.000
2162,50887,Shell,Shell,,3901 W Airline Hwy,Rosenwald St,Reserve,New Orleans,LA,70084,30.076781619957,-90.572437047958,N,N,N,2021-09-02 15:38:02.154,2021-09-02 15:38:02.154,2021-09-02 15:38:02.154,,0.0,1.43,1,2021-09-09 22:00:00.000,2021-09-10 19:23:01.000
2163,134473,Road Runner,,,3547 W Airline Hwy  Reserve,Central Ave,Reserve,New Orleans,LA,70084,30.076918562511,-90.55261015892,N,N,Y,2021-08-31 02:34:02.978,2021-08-31 02:34:02.978,,,0.0,1.55,1,2021-09-09 21:00:00.000,2021-09-10 19:23:01.000
2164,134560,Valero,Valero,DV Express,100 Central Ave,River Rd,Reserve,New Orleans,LA,70084,30.053879373845,-90.551247596741,N,N,N,2021-09-01 01:32:13.586,2021-09-01 01:32:14.111,2021-09-01 01:32:13.870,,0.0,1.0,1,2021-09-09 18:00:00.000,2021-09-10 19:23:01.000
2165,158171,Marathon,Marathon,Reserve Truck Stop,4450 W Airline Hwy,Terre Haute Rd,Reserve,New Orleans,LA,70084,30.076967,-90.588455,Y,N,Y,2021-09-06 20:59:25.594,2021-09-06 20:59:25.594,2021-09-03 23:02:40.490,,0.0,15.73,2,2021-09-09 23:00:00.000,2021-09-10 19:23:01.000
2166,117911,Exxon,Popingo's,Popingo's  11,10493 LA-70 W,Frontage St,St. James,New Orleans,LA,70086,30.094680029463,-90.929642915726,N,Y,Y,2021-09-04 13:50:57.157,,,,0.0,2.27,1,2021-09-09 22:00:00.000,2021-09-10 19:23:01.000
2167,56162,Shell,Shell,24 & 7 Truck Stop,10326 Airline Hwy,Riverbend Dr,St Rose,New Orleans,LA,70087,29.976863693189,-90.291325449944,N,N,N,2021-08-31 22:34:23.027,2021-08-31 22:34:24.737,2021-08-31 22:34:24.094,,0.0,0.94,1,2021-09-09 16:00:00.000,2021-09-10 19:23:01.000
2168,129873,Marathon,Marathon,,7532 E Judge Perez Dr,South Lake Blvd,Violet,New Orleans,LA,70092,29.87975073805,-89.877465963364,Y,Y,N,2021-09-06 16:42:17.512,2021-09-06 16:42:22.557,2021-09-06 16:42:18.757,,0.0,0.18,1,2021-09-09 21:00:00.000,2021-09-10 19:23:01.000
2169,111809,Quick Check,,,5815 E Judge Perez Dr,Oak Dr,Violet,New Orleans,LA,70092-3038,29.909812,-89.896133,Y,Y,Y,2021-09-05 18:58:09.368,2021-09-05 18:57:55.751,,,0.0,1.28,1,2021-09-08 22:00:00.000,2021-09-10 19:23:01.000
2170,50686,Shell,Shell,,2901 US-90,S Jamie Blvd,Avondale,New Orleans,LA,70094,29.909565,-90.20374,N,N,Y,2021-09-01 00:05:57.097,2021-09-01 00:05:57.097,,,0.0,1.22,1,2021-09-09 23:00:00.000,2021-09-10 19:23:01.000
2171,134871,Discount Zone,,,5405 Veterans Blvd,Green Acres Rd,Metairie,New Orleans,LA,70003,30.006430783137,-90.201305150986,Y,Y,Y,2021-09-09 20:08:51.402,2021-09-09 20:08:51.969,2019-05-29 12:53:10.849,,0.0,18.71,2,2021-09-09 23:00:00.000,2021-09-10 19:23:01.000
2172,124404,Old Metairie Discount,,,198 Metairie Rd,Fredrichs Ave,Metairie,New Orleans,LA,70005,29.9793274,-90.1252858,N,N,Y,2021-08-31 21:47:38.110,2021-08-31 21:47:38.705,,,0.0,0.99,1,2021-09-09 23:00:00.000,2021-09-10 19:23:01.000
2173,101008,Chevron,Chevron,Alex's,7415 W Judge Perez Dr,Perrin,Arabi,New Orleans,LA,70032,29.959834,-89.99483,Y,Y,N,2021-09-09 04:35:13.283,2021-09-09 04:35:13.283,2021-09-09 04:35:13.283,,0.0,4.38,1,2021-09-09 22:00:00.000,2021-09-10 19:23:01.000
2174,135862,Gulf,Gulf,,9654 Belle Chasse Hwy,Russell Dr,Belle Chasse,New Orleans,LA,70037,29.823388,-90.006416,N,N,Y,2021-08-31 19:58:59.365,2021-08-31 19:58:56.456,2019-08-19 17:03:33.000,,0.0,1.54,1,2021-09-09 23:00:00.000,2021-09-10 19:23:01.000
2175,124389,Triple A Foodmart,,,1901 E Judge Perez Dr,Campagna Dr,Chalmette,New Orleans,LA,70043,29.9377578,-89.9459959,Y,N,Y,2021-09-03 22:16:11.984,2021-09-03 22:16:17.185,,,0.0,1.06,1,2021-09-09 23:00:00.000,2021-09-10 19:23:01.000
2176,56105,RaceTrac,RaceTrac,139,1625 Lafayette St,17th St,Gretna,New Orleans,LA,70053,29.907496778671,-90.054438114166,Y,Y,N,2021-09-08 19:55:51.115,2021-09-08 19:55:51.115,2021-09-05 23:59:01.873,,0.0,16.74,2,2021-09-09 20:00:00.000,2021-09-10 19:23:01.000
2177,56171,Behrman Discount,,,755 Behrman Hwy,Park Place Dr,Terrytown,New Orleans,LA,70056,29.89246204359,-90.019054412842,Y,Y,Y,,,,,0.0,1.03,1,2021-09-09 16:00:00.000,2021-09-10 19:23:01.000
2178,131129,Exxon,Exxon,Brother's,801 Behrman Hwy,Park Place Dr,Terrytown,New Orleans,LA,70056-4568,29.894757006387,-90.018747299909,Y,Y,Y,2021-09-05 16:42:56.466,2021-09-05 17:49:07.406,2021-09-05 16:43:02.635,,0.0,3.02,1,2021-09-09 23:00:00.000,2021-09-10 19:23:01.000
2179,177474,RaceTrac,RaceTrac,,3000 Belle Chase Hwy,Dale Ave,Terrytown,New Orleans,LA,70056,29.879197226896,-90.018920302391,Y,Y,Y,2021-09-10 02:29:16.890,2021-09-10 02:29:16.890,2021-09-10 02:29:16.889,2.74,2.0,2.07,1,2021-09-09 23:00:00.000,2021-09-10 19:23:01.000
2180,56114,Exxon,Exxon,Brother's Food Mart,1600 Manhattan Blvd,Gretna Blvd,Harvey,New Orleans,LA,70058,29.891099365017,-90.058686733246,Y,Y,Y,2021-09-03 21:16:48.318,2019-07-20 02:50:14.113,,2.99,5.0,1.61,1,2021-09-09 22:00:00.000,2021-09-10 19:23:01.000
2181,56119,Shell,Shell,,800 Manhattan Blvd,Westbank Expy,Harvey,New Orleans,LA,70058,29.903144239946,-90.066390037537,N,Y,Y,2021-09-07 21:56:56.134,2020-11-09 16:49:25.718,,2.90,4.0,2.28,1,2021-09-09 23:00:00.000,2021-09-10 19:23:01.000
2182,56124,Kenner Express,,,2111 Williams Blvd,21st St,Kenner,New Orleans,LA,70062,29.994228,-90.24153,Y,N,N,2021-09-03 13:45:16.425,2021-09-01 05:13:13.274,2021-09-01 05:13:13.275,,0.0,1.0,1,2021-09-09 23:00:00.000,2021-09-10 19:23:01.000
2183,150754,CITGO,CITGO,,404 Veterans Blvd,Loyola Dr,Kenner,New Orleans,LA,70062,30.006044,-90.265721,N,N,N,2021-09-03 12:12:24.820,2021-09-03 12:12:24.820,2021-09-03 12:12:24.820,,0.0,2.49,1,2021-09-09 22:00:00.000,2021-09-10 19:23:01.000
2184,155993,Quick Save,,,2532 3rd St,Filmore St,Kenner,New Orleans,LA,70062,29.971758,-90.238971,N,Y,Y,2021-08-28 04:48:23.141,,,,0.0,1.0,1,2021-09-09 22:00:00.000,2021-09-10 19:23:01.000
2185,89296,Pit Stop Petroleum,,,12205 US-90,Bank St,Luling,New Orleans,LA,70070,29.912537,-90.34663,Y,Y,Y,2021-09-10 17:51:22.641,2021-09-10 17:51:29.189,,3.09,5.0,4.49,1,2021-09-09 20:00:00.000,2021-09-10 19:23:01.000
2186,100493,QC Pitlane,,Pit Ln,3225 E Judge Perez Dr,Rue Carmen,Meraux,New Orleans,LA,70075,29.937472666685,-89.925933480263,N,N,N,2021-09-01 14:49:03.433,2021-09-01 14:49:03.433,2021-09-01 14:49:03.434,,0.0,1.21,1,2021-09-09 20:00:00.000,2021-09-10 19:23:01.000
2187,167626,Sunshine Truck & Casino Plaza,,,104333 Hwy 70 W,Frontage St,Saint James,New Orleans,LA,70086,30.095724,-90.928404,N,N,Y,2021-09-01 13:58:43.504,2021-09-03 18:32:11.090,,,0.0,0.94,1,2021-09-09 23:00:00.000,2021-09-10 19:23:01.000
2188,160834,Econo Mart,,St B's,5859 E St Bernard Ave,Colonial Blvd,Violet,New Orleans,LA,70092,29.903999882234,-89.903075695038,N,N,Y,2021-09-01 14:48:14.249,2021-09-01 14:48:14.248,,,0.0,0.91,1,2021-09-09 23:00:00.000,2021-09-10 19:23:01.000
2189,130034,QC Discount,,,4725 E Judge Perez Dr,Livaccari Dr,Meraux,New Orleans,LA,70092,29.922562,-89.906356,N,N,N,2021-09-01 20:18:43.594,2021-09-01 20:18:47.957,2021-09-01 20:18:44.377,,0.0,0.1,1,2021-09-09 23:00:00.000,2021-09-10 19:23:01.000
2190,85917,Exxon,Exxon,Brother's Food Mart,9000 Westbank Expy,Beechgrove Blvd,Westwego,New Orleans,LA,70094,29.906867,-90.160238,N,N,N,2021-09-01 18:09:41.970,2021-09-03 12:05:29.852,2021-09-03 12:05:29.852,,0.0,1.03,1,2021-09-09 22:00:00.000,2021-09-10 19:23:01.000
2191,67464,Texaco,Texaco,Avondale Truck Stop,3110 US-90,Avondale Garden Rd,Avondale,New Orleans,LA,70094,29.911904925322,-90.208525657654,N,N,Y,2021-09-01 00:10:53.197,2021-09-01 00:10:53.197,,,0.0,,0,,2021-09-10 19:23:01.000
2192,125387,Quickstop,QuickStop,,3331 Carondelet St,Louisiana Ave,New Orleans,New Orleans,LA,70115,29.929014869397,-90.091409683228,Y,Y,Y,2021-09-09 13:39:11.704,2021-09-09 13:39:11.704,,,0.0,1.87,1,2021-09-09 23:00:00.000,2021-09-10 19:23:01.000
2193,201776,Key's Fuel Mart,,,4401 N Robertson St,Poland Ave,New Orleans,New Orleans,LA,70117,29.968942,-90.029397,N,N,Y,2021-09-01 15:19:35.248,2021-09-01 00:50:04.338,,2.99,5.0,1.82,1,2021-09-09 23:00:00.000,2021-09-10 19:23:01.000
2194,124143,Banks Meat Market,,,325 S Broad St,Banks St,New Orleans,New Orleans,LA,70119,29.9636568,-90.089192,Y,Y,Y,2021-09-09 16:27:17.203,2021-09-09 16:27:17.203,,,0.0,0.33,1,2021-09-09 21:00:00.000,2021-09-10 19:23:01.000
2195,154708,Crescent Discount,,,10717 Jefferson Hwy,Tullulah Ave,River Ridge,New Orleans,LA,70123,29.967236595764,-90.229741930962,Y,Y,Y,2021-09-09 20:57:48.102,2021-09-09 20:57:48.634,,,0.0,0.59,1,2021-09-09 22:00:00.000,2021-09-10 19:23:01.000
2196,193777,RaceTrac,,2430,5725 Jefferson Hwy,Edwards Ave,Harahan,New Orleans,LA,70123,29.944416,-90.185665,N,Y,N,2021-09-10 03:49:19.965,2021-09-09 21:51:12.427,2021-09-07 11:07:36.550,2.62,1.0,6.37,2,2021-09-09 22:00:00.000,2021-09-10 19:23:01.000
2197,138928,Fleur de Lis Car Care Center,,,247 W Harrison Ave,Fleur de Lis Dr,New Orleans,New Orleans,LA,70124,30.005994,-90.118269,N,Y,N,2021-09-08 13:29:43.178,2021-09-08 13:29:46.651,2021-09-08 13:29:44.276,,0.0,0.97,1,2021-09-09 22:00:00.000,2021-09-10 19:23:01.000
2198,153394,Dolly's Gas,,,5201 Canal Blvd,Rosedale Dr,New Orleans,New Orleans,LA,70124,29.984582,-90.110088,Y,Y,Y,2021-09-08 18:08:56.431,2021-09-07 21:13:28.812,,2.89,4.0,11.07,2,2021-09-09 17:00:00.000,2021-09-10 19:23:01.000
2199,50860,Shell,Shell,,2150 S Claiborne Ave,Jackson Ave,New Orleans,New Orleans,LA,70125,29.944950508471,-90.089639425278,Y,Y,N,2021-09-04 12:36:38.809,2021-09-09 05:54:34.531,2021-08-31 23:26:39.597,3.09,5.0,1.57,1,2021-09-09 23:00:00.000,2021-09-10 19:23:01.000
2200,121433,Discount-N-Out,,,6050 Chef Menteur Hwy,Stemway Dr,New Orleans,New Orleans,LA,70126,30.0101098,-90.0185883,Y,Y,Y,2021-09-09 05:21:55.390,2021-09-09 05:21:55.390,2021-09-02 02:40:27.158,2.89,4.0,0.93,1,2021-09-09 20:00:00.000,2021-09-10 19:23:01.000
2201,17670,Shell,Shell,,833 Westbank Expy,Ave H,Westwego,New Orleans,LA,70094,29.898967,-90.144443,Y,Y,Y,2021-09-04 20:52:23.178,2020-11-03 19:25:19.100,2020-11-03 19:25:19.095,2.93,4.0,12.39,2,2021-09-09 20:00:00.000,2021-09-10 19:23:01.000
2202,201160,RaceTrac,RaceTrac,,3500 General De Gaulle Dr,Westbend Pkwy,Algiers,New Orleans,LA,70114-6715,29.926768332081,-90.021298924922,Y,Y,Y,2021-09-08 21:05:26.775,2021-09-08 21:05:26.775,2021-09-08 21:05:26.775,,0.0,1.0,1,2021-09-08 20:00:00.000,2021-09-10 19:23:01.000
2203,124141,Discount Zone,,,2727 Magazine,Washington Ave,New Orleans,New Orleans,LA,70115,29.926668,-90.081644,Y,Y,Y,2021-09-08 14:39:42.002,2021-09-08 14:39:40.913,,,0.0,1.23,1,2021-09-09 22:00:00.000,2021-09-10 19:23:01.000
2204,171256,Mardi Gras Truck Stop,,,2411 Elysian Fields Ave,I-10,New Orleans,New Orleans,LA,70117,29.982506,-90.057372,Y,Y,Y,2021-09-04 17:52:11.056,2021-09-04 17:52:11.056,,,0.0,1.02,1,2021-09-09 18:00:00.000,2021-09-10 19:23:01.000
2205,133090,Chevron,Chevron,,1400 S Carrollton Ave ,Willow St,New Orleans,New Orleans,LA,70118,29.948910778834,-90.128359794617,Y,Y,Y,2021-09-10 12:18:47.705,2021-09-10 12:18:47.705,,,0.0,0.79,1,2021-09-09 22:00:00.000,2021-09-10 19:23:01.000
2206,161940,Costco,Costco,,3900 Dublin St,Palmetto St,New Orleans,New Orleans,LA,70118,29.966623156172,-90.110536515713,Y,Y,Y,2021-09-09 13:28:07.514,2021-09-09 13:28:07.514,,2.56,1.0,1.02,1,2021-09-09 23:00:00.000,2021-09-10 19:23:01.000
2207,142065,Shell,Shell,Magnolia Discount,9201 Airline Hwy,Palm St ,New Orleans,New Orleans,LA,70118,29.972024702628,-90.121214389801,Y,Y,N,2021-09-07 00:07:00.675,2021-09-07 01:41:50.536,2021-09-02 01:58:33.971,,0.0,1.56,1,2021-09-09 22:00:00.000,2021-09-10 19:23:01.000
2208,92252,Exxon,Exxon,,2701 Canal St,N Broad St,New Orleans,New Orleans,LA,70119,29.966079422458,-90.087429285049,N,N,Y,2021-09-03 12:34:45.341,2021-09-03 12:34:43.623,,,0.0,1.29,1,2021-09-09 23:00:00.000,2021-09-10 19:23:01.000
2209,163655,Exxon,Exxon,,3400 Tulane Ave ,So Jefferson Davis Pkwy,New Orleans,New Orleans,LA,70119,29.965345144858,-90.098842084408,Y,Y,Y,2021-09-09 12:56:43.473,2021-09-09 12:56:43.473,,2.99,5.0,0.83,1,2021-09-09 23:00:00.000,2021-09-10 19:23:01.000
2210,86993,B Xpress,,,3101 Elysian Fields Ave ,Benefit St,New Orleans,New Orleans,LA,70122,29.990549139924,-90.058364868164,Y,Y,Y,2021-09-04 19:51:30.072,2021-09-04 19:51:32.353,,2.89,4.0,1.38,1,2021-09-09 23:00:00.000,2021-09-10 19:23:01.000
2211,97344,Petro Save,,Gentilly Spur,3201 Gentilly Blvd,Elysian Fields,New Orleans,New Orleans,LA,70122,29.999855,-90.059093,N,N,Y,2021-09-05 14:37:46.910,2021-09-05 14:37:47.609,,,0.0,1.24,1,2021-09-09 23:00:00.000,2021-09-10 19:23:01.000
2212,160528,Lakeview Discount Fuel,,,932 Harrison Ave,Argonne Blvd,New Orleans,New Orleans,LA,70124,30.003922,-90.103106,Y,Y,Y,2021-09-10 09:19:37.619,2021-09-10 09:19:38.600,2021-09-10 09:19:38.133,2.95,5.0,1.13,1,2021-09-09 23:00:00.000,2021-09-10 19:23:01.000
2213,56160,Chevron,Chevron,,6601 Chef Menteur Hwy,Ray Ave,New Orleans,New Orleans,LA,70126,30.011231709794,-90.011790990829,N,N,N,2021-09-06 13:18:01.879,2021-09-06 13:18:01.879,2021-09-06 13:18:01.878,2.94,4.0,9.91,2,2021-09-09 23:00:00.000,2021-09-10 19:23:01.000
2214,169960,Kwik Pik,, ,11040 Morrison Rd ,Wright Rd,New Orleans,New Orleans,LA,70127,30.04643728578,-89.972435474265,N,Y,Y,2021-09-04 23:26:06.351,2021-09-04 23:26:08.697,,,0.0,1.02,1,2021-09-09 13:00:00.000,2021-09-10 19:23:01.000
2215,86987,Chevron,Chevron,Bullard Chevron,7020 Bullard Ave,I-10 Service Rd,New Orleans,New Orleans,LA,70128,30.047977693389,-89.962760210037,Y,Y,N,2021-09-06 09:29:35.665,2021-09-06 09:29:35.665,2021-09-05 15:50:51.869,,0.0,3.4,1,2021-09-09 23:00:00.000,2021-09-10 19:23:01.000
2216,155514,Family Ranch,,,Bullard Ave,Hayne Blvd,New Orleans,New Orleans,LA,70128,30.056993,-89.969613,N,N,Y,2021-08-31 18:33:03.933,2021-08-31 18:33:03.933,,3.06,5.0,0.1,1,2021-09-09 21:00:00.000,2021-09-10 19:23:01.000
2217,159822,Shell,Shell,,1667 Tchoupitoulas St,St James St,New Orleans,New Orleans,LA,70130,29.929373,-90.06713,Y,Y,Y,2021-09-08 16:11:04.345,2021-09-08 16:11:05.374,2021-09-08 16:11:04.873,2.99,5.0,1.3,1,2021-09-09 21:00:00.000,2021-09-10 19:23:01.000
2218,50682,ALG Discount,,Steve's Auto Care,5101 General DeGaulle Dr,Tall Oaks Dr,Algiers,New Orleans,LA,70131,29.911775,-90.000751,Y,Y,Y,2021-09-05 17:00:04.763,2021-09-05 17:00:05.626,2021-09-04 18:52:48.992,,0.0,1.01,1,2021-09-09 22:00:00.000,2021-09-10 19:23:01.000
2219,134706,Chevron,Chevron,,502 St Mary St,Ridgefield Rd,Thibodaux,New Orleans,LA,70301,29.7961449,-90.8271274,Y,Y,Y,2021-09-05 17:24:11.398,2021-09-05 17:24:11.398,,,0.0,1.79,1,2021-09-09 23:00:00.000,2021-09-10 19:23:01.000
2220,174161,A & J,,,W Main St,W 54th st,Cut Off,Baton Rouge,LA,70345,29.536479949951,-90.336654663085,N,N,Y,2021-09-01 17:32:59.238,2021-09-01 17:32:59.238,,,0.0,5.81,2,2021-09-09 23:00:00.000,2021-09-10 19:23:01.000
2221,167366,Marathon,Clark,Sunshine Sportsman,2251 LA-70,LA-3120,Donaldsonville,Baton Rouge,LA,70346,30.094457,-90.935501,N,N,Y,2021-09-02 21:26:33.091,2021-09-02 21:26:33.092,,,0.0,0.03,1,2021-09-09 23:00:00.000,2021-09-10 19:23:01.000
2222,165592,Lucky Star Auto Truck Stop,,,2369 LA-70,LA-3089,Donaldsonville,Baton Rouge,LA,70346,30.078063,-90.962098,N,N,Y,2021-09-03 19:00:26.976,2021-09-03 19:00:31.949,,,0.0,2.54,1,2021-09-07 18:00:00.000,2021-09-10 19:23:01.000
2223,147214,Chevron,Chevron,,18513 LA-3235,W 200th St,Galliano,New Orleans,LA,70354,29.4187649,-90.2953851,Y,Y,Y,2021-09-10 17:00:33.500,2021-09-10 17:00:33.500,2021-09-06 23:10:08.736,,0.0,2.48,1,2021-09-09 13:00:00.000,2021-09-10 19:23:01.000
2224,151813,Exxon,Exxon,,3092 Bayou Blue Rd,Kajun St,Gray,New Orleans,LA,70359,29.680765,-90.748122,Y,Y,N,2021-09-05 17:59:41.812,,2021-09-05 13:40:15.700,,0.0,1.93,1,2021-09-09 21:00:00.000,2021-09-10 19:23:01.000
2225,115881,Shop N Bag,,,7724 W Park Ave,Lafayette St,Houma,New Orleans,LA,70360,29.5979313,-90.7247898,N,Y,Y,2021-09-06 13:09:46.733,2021-09-04 20:09:35.158,,,0.0,4.07,1,2021-09-09 19:00:00.000,2021-09-10 19:23:01.000
2226,115622,Valero,,Corner Store,1375 W Tunnel Blvd,Corporate Dr,Houma,New Orleans,LA,70360,29.599375603404,-90.74606180191,N,N,N,2021-09-05 21:55:45.034,2021-09-05 21:55:45.034,2021-09-05 21:55:45.034,,0.0,1.06,1,2021-09-09 22:00:00.000,2021-09-10 19:23:01.000
2227,141732,Shop Rite,,,1400 St Charles St,Southdown West Blvd,Houma,New Orleans,LA,70360,29.585035,-90.7454949,Y,Y,N,2021-09-07 16:13:14.580,2021-09-07 16:13:14.580,2021-09-05 21:23:26.305,,0.0,1.74,1,2021-09-09 22:00:00.000,2021-09-10 19:23:01.000
2228,117780,Chevron,Chevron,,5127 W Park Ave ,Coteau Rd,Houma,New Orleans,LA,70364,29.655835894706,-90.766167640686,N,N,N,2021-09-03 22:35:56.189,2021-09-03 22:35:58.398,2021-09-03 22:35:57.955,,0.0,1.26,1,2021-09-09 23:00:00.000,2021-09-10 19:23:01.000
2229,149342,Houma Coteau Travel Plaza,,,1367 LA-182,Coteau Rd,Houma,New Orleans,LA,70364,29.630818,-90.704587,N,N,N,2021-09-03 21:49:09.336,2021-09-03 21:49:09.336,2021-09-03 21:49:09.336,,0.0,1.06,1,2021-09-09 22:00:00.000,2021-09-10 19:23:01.000
2230,187801,Tobacco Plus,,,4886 LA-1,Central Lafourche Dr,Raceland,New Orleans,LA,70394,29.691706,-90.550749,Y,Y,N,2021-09-09 14:55:38.396,2021-09-08 19:12:37.569,2021-09-09 14:55:39.460,,0.0,1.97,1,2021-09-09 15:00:00.000,2021-09-10 19:23:01.000
2231,137756,Texaco,Texaco,Wilson Kountry Korne,2138 Bull Run Rd,LA-20,Schriever,New Orleans,LA,70395,29.705819,-90.910082,Y,Y,Y,2021-09-10 10:45:04.263,2021-09-10 10:45:05.577,2021-09-10 10:45:04.927,3.08,5.0,0.65,1,2021-09-09 22:00:00.000,2021-09-10 19:23:01.000
2232,172758,Natalbany Food Mart,,,47432 N Morrison Blvd   ,Natalbany Rd,Hammond,New Orleans,LA,70401,30.54536868744,-90.482545495033,N,N,Y,2021-09-04 04:36:58.057,2021-09-04 04:36:59.281,,,0.0,4.88,1,2021-09-09 23:00:00.000,2021-09-10 19:23:01.000
2233,192728,Marathon,,,17702 US-190 E,W Pleasant Ridge Rd,Hammond,New Orleans,LA,70401,30.509909092772,-90.427844524383,N,N,N,2021-08-31 19:10:56.238,2021-08-31 19:10:57.789,2021-08-31 19:10:56.928,2.99,5.0,6.45,2,2021-09-09 22:00:00.000,2021-09-10 19:23:01.000
2234,50782,RaceTrac,RaceTrac,679,42386 S Morrison Blvd,W Club Deluxe Rd,Hammond,New Orleans,LA,70403,30.475267,-90.482287,Y,Y,N,2021-09-09 21:40:20.428,2021-09-09 21:40:21.567,2021-09-08 20:30:41.112,2.67,1.0,2.25,1,2021-09-09 23:00:00.000,2021-09-10 19:23:01.000
2235,50784,Shell,Shell,,2201 SW Railroad Ave,I-12 ,Hammond,New Orleans,LA,70403,30.476768552851,-90.456866025925,N,N,N,2021-09-10 18:41:20.537,2021-09-05 12:58:38.263,2021-09-10 18:41:21.304,,0.0,3.43,1,2021-09-09 23:00:00.000,2021-09-10 19:23:01.000
2236,134794,Chevron,Chevron,,3151 W Thomas St,Westin Oaks Dr,Hammond,New Orleans,LA,70404,30.504001617431,-90.500442504882,N,N,Y,2021-09-05 11:02:02.728,2021-09-05 11:02:02.728,2021-09-04 13:41:39.063,,0.0,3.35,1,2021-09-09 23:00:00.000,2021-09-10 19:23:01.000
2237,167751,Carolina Stop and Save,,,120 Carolina Ave,Memphis St,Bogalusa,New Orleans,LA,70427-3309,30.790639290041,-89.859789535403,N,Y,Y,2021-09-04 16:31:27.425,2021-09-04 00:04:48.833,,3.14,5.0,5.74,2,2021-09-09 23:00:00.000,2021-09-10 19:23:01.000
2238,192839,Stop & Shop,,,302 S Columbia St,E 2nd St,Bogalusa,New Orleans,LA,70427-4531,30.778234182807,-89.855377972126,Y,Y,Y,2021-09-04 01:25:28.652,2021-09-04 01:25:28.895,,,0.0,1.31,1,2021-09-09 18:00:00.000,2021-09-10 19:23:01.000
2239,50750,Shell,Shell,,425 N US-190,Holiday Square Blvd.,Covington,New Orleans,LA,70433,30.436616663723,-90.084063112735,Y,Y,N,2021-09-07 18:45:36.834,2021-09-07 18:45:36.234,2021-09-07 18:45:34.635,2.75,2.0,12.82,2,2021-09-09 23:00:00.000,2021-09-10 19:23:01.000
2240,156223,Sam's Club,Sam's Club, 4874,69626 Stirling Blvd,I-12,Covington,New Orleans,LA,70433,30.444548,-90.134947,Y,Y,Y,2021-09-09 15:42:07.268,2021-09-09 15:42:08.878,2021-09-09 15:42:08.396,2.73,2.0,1.12,1,2021-09-09 22:00:00.000,2021-09-10 19:23:01.000
2241,141232,Exxon,Exxon,John's Exxon,267 W Railroad Ave,Nw 8 th St,Independence,New Orleans,LA,70443,30.628112672399,-90.499046444893,N,N,Y,2021-09-01 07:31:25.336,2021-09-01 07:31:25.335,,,0.0,60.0,4,2021-09-09 21:00:00.000,2021-09-10 19:23:01.000
2242,204823,Spring Creek Crossroads,,,16549 LA-38,LA-1054,Kentwood,New Orleans,LA,70444,30.9275065,-90.4487221,Y,Y,Y,,,,,0.0,1.23,1,2021-09-09 14:00:00.000,2021-09-10 19:23:01.000
2243,109302,Jemworks,,Jemworks 3,500 N Causeway Blvd,Monroe St,Mandeville,New Orleans,LA,70448,30.372482718699,-90.093153119087,Y,Y,Y,2021-09-04 18:18:20.994,2021-09-04 18:18:20.994,,,0.0,1.93,1,2021-09-09 21:00:00.000,2021-09-10 19:23:01.000
2244,174830,Best Stop,,,22615 LA-22,Bazile Rd,Maurepas,Baton Rouge,LA,70449,30.288137,-90.701645,N,Y,Y,2021-09-05 20:27:39.967,2021-09-05 14:36:46.810,2020-04-07 16:21:45.239,,0.0,0.52,1,2021-09-09 22:00:00.000,2021-09-10 19:23:01.000
2245,200050,Bedico Supermarket,,,28477 LA-22,Maison Lafitte Blvd,Ponchatoula,New Orleans,LA,70454,30.4365725,-90.2463598,N,Y,N,2021-09-08 00:56:37.422,2021-09-08 00:56:37.422,2021-09-08 00:56:37.422,2.99,5.0,3.47,1,2021-09-09 23:00:00.000,2021-09-10 19:23:01.000
2246,164690,Arcola Food Mart,Chevron,,12046 W LA-1048,I-55,Amite,New Orleans,LA,70456,30.78099638862,-90.531688928604,N,N,N,2021-09-04 15:43:44.042,2021-09-01 22:42:41.989,2021-09-04 15:43:44.043,,0.0,1.02,1,2021-09-09 18:00:00.000,2021-09-10 19:23:01.000
2247,91418,Circle K,Circle K,,1706 US-190,Sunset Dr,Slidell,New Orleans,LA,70458,30.294572285963,-89.799563884735,Y,Y,Y,2021-09-05 14:32:13.454,2021-09-05 14:32:13.728,,2.77,3.0,1.24,1,2021-09-09 23:00:00.000,2021-09-10 19:23:01.000
2248,91421,Circle K,Circle K,,200 Brownswitch Rd,Pawns Ln,Slidell,New Orleans,LA,70458,30.310694,-89.76497,Y,Y,Y,2021-09-07 19:03:29.171,2021-09-07 19:03:29.170,,2.78,3.0,1.01,1,2021-09-09 23:00:00.000,2021-09-10 19:23:01.000
2249,91420,Quick EZ #1,,,500 Brownswitch Rd,Whisperwood Dr,Slidell,New Orleans,LA,70458,30.3108,-89.75558,Y,Y,N,2021-09-07 19:02:59.269,2021-09-02 22:44:00.198,2021-09-02 22:43:56.474,,0.0,1.06,1,2021-09-09 23:00:00.000,2021-09-10 19:23:01.000
2250,91204,Top Fuel,,,US-190,LA-433,Slidell,New Orleans,LA,70460,30.301641038445,-89.832729399204,Y,Y,N,2021-09-05 22:51:04.953,2021-09-05 22:51:06.916,2021-08-31 23:16:53.934,2.99,5.0,0.99,1,2021-09-09 23:00:00.000,2021-09-10 19:23:01.000
2251,90748,Circle K,Kangaroo,,368 Voters Rd,Old Spanish Trl,Slidell,New Orleans,LA,70461,30.246667048698,-89.761326313019,Y,Y,Y,2021-09-09 15:17:11.834,2021-09-09 15:17:11.833,2021-09-09 15:17:11.834,,0.0,1.28,1,2021-09-09 17:00:00.000,2021-09-10 19:23:01.000
2252,83984,Quick Check,,,100 S Military Rd,Gause Blvd,Slidell,New Orleans,LA,70461,30.291163169637,-89.719204902649,N,Y,Y,2021-09-04 11:26:27.737,2021-09-03 22:01:34.182,,2.79,3.0,1.01,1,2021-09-09 20:00:00.000,2021-09-10 19:23:01.000
2253,89908,Shell,Shell,59 Shell,68090 LA-59,I-12,Mandeville,New Orleans,LA,70471,30.416604,-90.040736,Y,Y,N,2021-09-10 17:33:10.155,2021-09-06 13:50:29.551,2021-09-06 22:07:55.560,3.09,5.0,1.53,1,2021-09-09 23:00:00.000,2021-09-10 19:23:01.000
2254,80399,Exxon,Exxon,,1339 SE Evangeline Thruway,Pinhook Rd,Lafayette,"Lafayette, LA",LA,70501,30.218098108118,-92.004790306091,N,Y,Y,2021-09-09 12:50:33.805,2021-09-09 00:00:11.515,,,0.0,1.91,1,2021-09-09 23:00:00.000,2021-09-10 19:23:01.000
2255,80409,RaceTrac,RaceTrac,487,1001 Ne Evangeline Thruway,Bellot St,Lafayette,"Lafayette, LA",LA,70501,30.236788,-92.01308,Y,Y,Y,2021-09-10 17:28:12.391,2021-09-10 17:28:12.390,2021-09-10 17:28:12.391,2.71,2.0,1.64,1,2021-09-09 23:00:00.000,2021-09-10 19:23:01.000
2256,50799,Circle K,Circle K,,4400 Johnston St,Guilbeau Rd,Lafayette,"Lafayette, LA",LA,70503-4234,30.194237,-92.058282,Y,Y,Y,2021-09-10 11:44:52.698,2021-09-08 11:49:12.959,,2.72,2.0,0.96,1,2021-09-09 23:00:00.000,2021-09-10 19:23:01.000
2257,82187,Circle K,Circle K,Corner Store,2863 Ambassador Caffery Pkwy,Congress St,Lafayette,"Lafayette, LA",LA,70506-5905,30.196537679949,-92.074726223946,N,Y,Y,2021-09-08 21:15:54.596,2021-09-08 21:15:55.426,,2.68,1.0,1.18,1,2021-09-09 22:00:00.000,2021-09-10 19:23:01.000
2258,82191,Tobacco Plus,,,1906 Ambassador Caffery Pkwy,Avondale,Lafayette,"Lafayette, LA",LA,70506-2856,30.216058476325,-92.076373100281,N,Y,Y,2021-09-04 14:10:51.674,2021-09-04 14:10:52.157,,,0.0,2.88,1,2021-09-09 23:00:00.000,2021-09-10 19:23:01.000
2259,97809,RaceTrac,RaceTrac,,5100 Ambassador Caffery Pkwy,Verot School Rd,Lafayette,"Lafayette, LA",LA,70508,30.145609629201,-92.032256126404,Y,Y,Y,2021-09-10 17:59:15.026,2021-09-10 17:59:23.076,2021-09-09 23:26:50.873,2.69,1.0,1.54,1,2021-09-09 23:00:00.000,2021-09-10 19:23:01.000
2260,200080,Lighthouse Market,,,621 E Milton Ave,E Broussard Rd,Lafayette,"Lafayette, LA",LA,70508,30.108944,-92.0599639,Y,Y,Y,2021-09-09 21:55:08.717,2021-09-09 21:55:11.036,2021-09-09 21:55:09.635,,0.0,1.91,1,2021-09-09 23:00:00.000,2021-09-10 19:23:01.000
2261,121843,GasCo,,,5855 Downman Rd ,Chef Mentuer Hwy,New Orleans,New Orleans,LA,70126,30.01030305293,-90.021200180054,N,N,N,2021-08-31 19:59:51.474,2021-08-31 19:59:52.358,2021-08-31 19:59:52.000,2.94,4.0,1.38,1,2021-09-09 23:00:00.000,2021-09-10 19:23:01.000
2262,128692,Discount East,,,5905  Dwyer Rd,Downman Rd,New Orleans,New Orleans,LA,70126,30.018756642515,-90.021554231644,N,N,Y,2021-09-01 20:07:56.343,2021-09-01 20:07:56.343,,,0.0,1.1,1,2021-09-09 23:00:00.000,2021-09-10 19:23:01.000
2263,70651,Chef Discount Meat Market,,,10833 Chef Menteur Hwy,Papania Dr,New Orleans,New Orleans,LA,70127,30.020621,-89.959822,N,N,Y,2021-09-01 22:11:42.027,2021-09-01 22:11:42.027,,,0.0,1.5,1,2021-09-09 21:00:00.000,2021-09-10 19:23:01.000
2264,145549,Texaco,Texaco,,1501 St Mary st,Park Dr,Thibodaux,New Orleans,LA,70301,29.799312928593,-90.841261446476,Y,Y,Y,2021-09-07 11:42:27.338,2021-09-07 11:42:27.338,2021-09-01 20:27:56.266,,0.0,0.33,1,2021-09-09 20:00:00.000,2021-09-10 19:23:01.000
2265,155624,Chevron,Chevron,Marty J's Bayou Sta,4994 LA-56,Sarah Rd,Chauvin,Baton Rouge,LA,70344,29.483249422106,-90.579685717821,Y,Y,Y,2021-08-31 20:13:59.130,,,,0.0,0.45,1,2021-09-09 22:00:00.000,2021-09-10 19:23:01.000
2266,170232,Cecil Lapeyrouse,,,7243 Shoreline Dr,Bayou Sale Rd,Chauvin,Baton Rouge,LA,70344,29.307549,-90.647528,Y,Y,Y,,,,,0.0,,0,,2021-09-10 19:23:01.000
2267,147215,CITGO,Valero,,16816 LA-3235,LA-3162,Cut Off,Baton Rouge,LA,70345,29.468293528117,-90.325186997652,N,N,N,2021-09-10 16:56:45.780,2021-09-10 16:56:45.780,2021-09-10 16:56:45.781,,0.0,1.62,1,2021-09-08 19:00:00.000,2021-09-10 19:23:01.000
2268,149712,Shell,Shell,Terrebonne Truck Stop,4067 W Park Ave,US-90,Houma,New Orleans,LA,70359,29.678060662915,-90.78088760376,N,N,N,2021-09-03 13:40:59.794,2021-09-03 13:40:59.794,2021-09-03 13:40:59.794,,0.0,8.06,2,2021-09-09 23:00:00.000,2021-09-10 19:23:01.000
2269,142064,Civic Express Discount,,,1251 Barrow St,Dupont St,Houma,New Orleans,LA,70360,29.58527,-90.720763,Y,Y,Y,2021-09-04 15:20:05.096,2021-09-04 15:20:05.096,,3.20,5.0,0.63,1,2021-09-09 17:00:00.000,2021-09-10 19:23:01.000
2270,142149,Jubilee,,,3846 Little Bayou Black Dr,Lafayette St,Houma,New Orleans,LA,70360,29.584892649176,-90.72681427002,N,Y,N,2021-09-04 17:05:12.389,2020-11-10 00:26:22.105,2021-09-04 17:05:12.389,,0.0,1.33,1,2021-09-09 23:00:00.000,2021-09-10 19:23:01.000
2271,117781,Marathon,Marathon,,8058 W Park Ave,New Orleans Blvd,Houma,New Orleans,LA,70364,29.599608821292,-90.716525316238,Y,Y,Y,2021-09-03 16:46:13.535,2021-09-03 16:46:13.535,2020-11-13 17:22:04.314,,0.0,0.32,1,2021-09-09 23:00:00.000,2021-09-10 19:23:01.000
2272,116282,Tobacco Plus,,,6068 W Park Ave,Funderburk Ave,Houma,New Orleans,LA,70364,29.6303022,-90.7554399,N,N,Y,2021-09-06 12:30:09.731,2021-09-06 12:30:09.730,,,0.0,1.65,1,2021-09-09 22:00:00.000,2021-09-10 19:23:01.000
2273,133820,Texaco,Texaco,,831 LA-182 ,N Hollywood Rd,Houma,New Orleans,LA,70364,29.615173341374,-90.711844861507,N,N,N,2021-09-04 16:41:50.506,2021-09-04 16:41:50.507,2021-09-04 16:41:50.506,,0.0,4.43,1,2021-09-09 19:00:00.000,2021-09-10 19:23:01.000
2274,137572,Acadia,,,13269 W Main St,Femandez St,Larose,New Orleans,LA,70373,29.566658343807,-90.369695574045,N,N,N,2021-09-02 19:24:18.636,2021-09-02 19:24:18.636,2021-09-02 19:24:18.636,,0.0,1.02,1,2021-09-08 15:00:00.000,2021-09-10 19:23:01.000
2275,50728,CITGO,CITGO,Cash Magic,1829 US-90 E,Arlington St,Morgan City,New Orleans,LA,70380,29.685806,-91.255601,Y,Y,N,2021-09-08 15:07:07.001,2021-09-08 15:07:07.001,2021-09-07 14:13:50.128,,0.0,2.05,1,2021-09-09 21:00:00.000,2021-09-10 19:23:01.000
2276,50838,Food Mart,,,7028 LA-182 E,Cottonwood St,Morgan City,New Orleans,LA,70380,29.694875134022,-91.19158744812,Y,Y,N,2021-09-09 15:55:42.574,2021-09-09 15:55:42.573,2021-09-06 02:47:21.838,,0.0,0.22,1,2021-09-09 23:00:00.000,2021-09-10 19:23:01.000
2277,194777,Exxon,Exxon,,9743 Highway 182 E,De Gravelle Rd,Morgan City,New Orleans,LA,70380,29.6666056,-91.1278559,N,Y,Y,2021-09-08 16:00:57.928,2021-09-06 21:33:15.753,2021-09-07 16:10:26.511,2.95,5.0,0.08,1,2021-09-06 21:00:00.000,2021-09-10 19:23:01.000
2278,171043,Charlie's One Stop,,,4738 LA-1,Canal Rd,Napoleonville,New Orleans,LA,70390,29.939042,-91.02109,Y,N,Y,2021-09-07 00:00:48.844,2021-09-07 00:00:51.087,,,0.0,2.11,1,2021-09-09 20:00:00.000,2021-09-10 19:23:01.000
2279,134795,Exxon,Exxon,,3175 W Thomas St,Westin Oaks Dr,Hammond,New Orleans,LA,70401,30.504040321623,-90.501098334789,N,Y,Y,2021-09-05 19:52:43.378,2021-09-05 19:52:44.101,,2.74,2.0,1.75,1,2021-09-09 23:00:00.000,2021-09-10 19:23:01.000
2280,94773,RaceTrac,RaceTrac,243,1975 Sw Railroad Ave,I-12,Hammond,New Orleans,LA,70403,30.481302307106,-90.456721186638,N,Y,N,2021-09-09 22:20:57.667,2021-09-09 15:04:48.680,2021-09-09 11:04:51.887,2.64,1.0,1.33,1,2021-09-09 23:00:00.000,2021-09-10 19:23:01.000
2281,125552,RaceTrac,RaceTrac,,3090 W Thomas St,I-55 ,Hammond,New Orleans,LA,70403,30.504642713422,-90.499159097672,Y,Y,Y,2021-09-10 18:51:16.972,2021-09-10 18:51:18.251,2021-09-10 18:51:17.693,2.64,1.0,7.53,2,2021-09-09 23:00:00.000,2021-09-10 19:23:01.000
2282,116379,Texaco,Texaco,Carlos' Quick Stop,43370 S Airport Rd,I-12 ,Hammond,New Orleans,LA,70403,30.489403951545,-90.414706983432,N,N,N,2021-08-31 21:15:58.817,2021-08-31 21:16:00.121,2021-08-31 21:15:59.513,,0.0,1.48,1,2021-09-09 23:00:00.000,2021-09-10 19:23:01.000
2283,146902,Shell,Shell,Miller's Mart,14021 W Club Deluxe Rd,Happywoods Rd,Hammond,New Orleans,LA,70403,30.476277898483,-90.50028257057,Y,Y,N,2021-09-07 19:11:07.575,2021-09-08 20:30:59.439,2021-09-03 13:41:49.060,,0.0,1.21,1,2021-09-09 23:00:00.000,2021-09-10 19:23:01.000
2284,179261,Frabbieli's Food & Deli,,,22697 LA-435,Brookforest Rd,Abita Springs,New Orleans,LA,70420,30.486400987468,-90.025147050619,N,N,Y,2021-09-04 02:36:38.872,2021-09-04 02:36:40.611,,,0.0,1.0,1,2021-09-09 20:00:00.000,2021-09-10 19:23:01.000
2285,154857,Chevron,Chevron,,26003 LA-21,Main St,Angie,New Orleans,LA,70426,30.895121,-89.834497,Y,Y,Y,2021-09-04 01:18:21.438,2021-09-04 01:18:22.163,,,0.0,1.17,1,2021-09-07 01:00:00.000,2021-09-10 19:23:01.000
2286,192833,Carolina Stop and Save,,,19597 LA-21 N,City Limits Rd,Bogalusa,New Orleans,LA,70427-8946,30.804432000693,-89.842115789651,Y,Y,Y,2021-09-04 01:20:27.516,2021-09-04 01:20:26.577,2021-09-04 01:20:27.094,,0.0,3.92,1,2021-09-09 20:00:00.000,2021-09-10 19:23:01.000
2287,161628,Texaco,Texaco,Shan's,81550 LA-21,Daisy Rd,Bush,New Orleans,LA,70431-4434,30.615319627118,-89.919356033206,Y,Y,Y,2021-09-06 18:21:04.253,2021-09-06 18:21:05.081,2021-09-02 21:33:30.523,2.99,5.0,9.07,2,2021-09-09 22:00:00.000,2021-09-10 19:23:01.000
2288,157121,Goodbee Quick Stop,,,13029 Ronald Reagan Hwy,LA -1077,Covington,New Orleans,LA,70435,30.501733,-90.199833,Y,N,N,2021-09-03 18:22:34.564,2021-08-31 18:14:35.937,2021-09-01 14:39:28.582,2.99,5.0,1.0,1,2021-09-09 23:00:00.000,2021-09-10 19:23:01.000
2289,110739,Jr. Food Mart,, ,82322 LA-25,LA-40,Folsom,New Orleans,LA,70437,30.628366554247,-90.187454223633,Y,Y,Y,2021-09-04 15:40:42.150,2021-09-04 15:40:42.150,2021-09-04 15:40:42.150,,0.0,1.78,1,2021-09-09 22:00:00.000,2021-09-10 19:23:01.000
2290,136491,Market Max,,,48 Washington St,Main St,Franklinton,New Orleans,LA,70438,30.844431526127,-90.156984329224,Y,Y,N,2021-09-07 19:20:39.925,2021-09-03 17:26:00.428,2021-09-02 17:35:57.182,,0.0,2.0,1,2021-09-09 23:00:00.000,2021-09-10 19:23:01.000
2291,120507,Bridge's Fuel Stop,,,5831 LA-10,LA-441,Greensburg,Baton Rouge,LA,70441,30.828108,-90.663686,N,N,N,2021-09-01 22:46:37.649,2021-09-01 22:46:38.383,2021-09-01 22:46:38.022,,0.0,6.03,2,2021-09-08 03:00:00.000,2021-09-10 19:23:01.000
2292,178270,Dollar General,,,515 W 3rd St,Oak St,Independence,New Orleans,LA,70443,30.636548885676,-90.506325960159,N,Y,Y,2021-09-01 21:04:23.738,,,,0.0,1.67,1,2021-09-09 21:00:00.000,2021-09-10 19:23:01.000
2293,142546,Kangaroo,Kangaroo,Kangaroo Express,901 Ave G,Service Rd,Kentwood,New Orleans,LA,70444,30.937329276456,-90.526528358459,N,Y,Y,2021-09-04 18:07:36.073,,,2.84,3.0,8.2,2,2021-09-09 19:00:00.000,2021-09-10 19:23:01.000
2294,161965,Wilmer Quick Stop,,,LA-10,LA-1061,Kentwood,New Orleans,LA,70444,30.813882,-90.363509,Y,Y,Y,2021-09-07 00:12:16.166,2021-09-07 00:12:16.166,,,0.0,1.55,1,2021-09-09 23:00:00.000,2021-09-10 19:23:01.000
2295,91194,Exxon,Exxon,,64041 LA-434,Krentel,Lacombe,New Orleans,LA,70445,30.356878929518,-89.919147491455,Y,Y,Y,2021-09-05 20:28:37.374,2021-09-05 13:22:03.902,2021-09-10 13:39:40.314,,0.0,1.02,1,2021-09-06 16:00:00.000,2021-09-10 19:23:01.000
2296,97986,Gulf,Gulf,,2000 Florida St,Girod St,Mandeville,New Orleans,LA,70448,30.363433268534,-90.06196975708,N,Y,Y,2021-09-09 17:46:24.653,2021-09-09 17:46:23.895,2019-08-19 17:03:30.000,,0.0,1.25,1,2021-09-09 23:00:00.000,2021-09-10 19:23:01.000
2297,141883,Shell,Shell,,2595 Florida St,Wilkinson St,Mandeville,New Orleans,LA,70448,30.368603,-90.07063,Y,Y,N,2021-09-10 00:46:25.624,2021-09-10 00:46:28.200,2021-09-07 14:19:54.165,2.89,4.0,1.02,1,2021-09-09 19:00:00.000,2021-09-10 19:23:01.000
2298,115420,Hickory Grocery,,,67776 LA-41  ,south of LA-36,Hickory,New Orleans,LA,70452,30.412114177169,-89.779287725687,N,N,N,2021-09-03 14:48:46.493,2021-09-03 14:48:46.493,2021-09-03 14:48:46.493,,0.0,3.95,1,2021-09-09 16:00:00.000,2021-09-10 19:23:01.000
2299,154516,Riverside Gas,,,65583 Pump Slough Rd,I-59 ,Pearl River,New Orleans,LA,70452,30.375577,-89.740334,Y,Y,Y,2021-09-04 15:50:51.968,2021-09-04 12:14:43.500,2021-09-04 12:14:43.060,2.99,5.0,11.35,2,2021-09-09 17:00:00.000,2021-09-10 19:23:01.000
2300,172111,Ballard And Son Service,,,195 SW Railroad Ave,W Oak St,Ponchatoula,New Orleans,LA,70454,30.4375,-90.441379,Y,Y,Y,2021-09-04 16:37:03.778,2021-09-04 16:37:03.778,,,0.0,1.03,1,2021-09-09 21:00:00.000,2021-09-10 19:23:01.000
2301,128013,Shell,Shell,,780 W Pine St,S Kemp St,Ponchatoula,New Orleans,LA,70454,30.4376157,-90.450741,Y,Y,Y,2021-09-06 18:03:43.218,2021-09-06 18:03:43.218,2021-09-06 18:03:43.210,,0.0,15.44,2,2021-09-09 23:00:00.000,2021-09-10 19:23:01.000
2302,171202,Saints Quick Stop,,,455 E Pine St,S 2nd St,Ponchatoula,New Orleans,LA,70454,30.439961,-90.435424,N,Y,Y,2021-09-04 20:33:48.884,2021-09-04 20:33:48.876,,,0.0,3.51,1,2021-09-09 23:00:00.000,2021-09-10 19:23:01.000
2303,56167,Shell,Shell,,3296 Pontchartrain Dr,Kostmayer Ave,Slidell,New Orleans,LA,70458,30.259215476606,-89.786624908447,N,N,Y,2021-09-01 00:03:51.065,2021-09-01 00:03:51.549,,2.92,4.0,4.1,1,2021-09-09 23:00:00.000,2021-09-10 19:23:01.000
2304,91209,Shell,Shell,,1833 Old Spanish Trl,Joseph St,Slidell,New Orleans,LA,70458,30.249197252168,-89.765427410603,Y,Y,N,2021-09-07 19:43:11.537,2021-09-07 19:43:21.646,2021-09-06 16:32:49.996,,0.0,1.29,1,2021-09-09 22:00:00.000,2021-09-10 19:23:01.000
2305,108532,Shell,Shell,,750 Brownswitch Rd,LA-1091,Slidell,New Orleans,LA,70458,30.310606512348,-89.74792599678,Y,Y,Y,2021-09-09 09:17:23.083,2021-09-09 09:17:24.403,2021-09-09 09:17:23.778,3.09,5.0,0.45,1,2021-09-09 23:00:00.000,2021-09-10 19:23:01.000
2306,91417,Slidell Quick Stop,,,1703 Gause Blvd W,Carroll Rd,Slidell,New Orleans,LA,70460,30.293424,-89.799714,N,N,Y,2021-09-03 18:31:37.601,2021-09-03 18:31:37.601,,,0.0,5.47,2,2021-09-09 18:00:00.000,2021-09-10 19:23:01.000
2307,186749,RaceTrac,RaceTrac,,60328 Powell Dr,US-11,Slidell,New Orleans,LA,70460,30.307012702343,-89.772607684135,Y,Y,Y,2021-09-10 14:46:04.034,2021-09-09 01:21:47.489,2021-09-09 01:21:46.922,2.75,2.0,11.92,2,2021-09-09 23:00:00.000,2021-09-10 19:23:01.000
2308,89907,Exxon,Exxon,,68083 LA-59,I-12,Mandeville,New Orleans,LA,70471-7501,30.416051858547,-90.04127651453,N,Y,N,2021-09-07 22:46:08.702,2020-11-08 14:24:28.140,2021-09-03 22:24:32.084,,0.0,0.11,1,2021-09-09 21:00:00.000,2021-09-10 19:23:01.000
2309,133995,Chevron,Chevron,USA Food Express,1600 Moss St,E Pine St,Lafayette,"Lafayette, LA",LA,70501,30.246393634532,-92.005868554115,N,Y,Y,2021-09-06 13:31:58.751,2021-09-06 13:32:01.667,,,0.0,1.0,1,2021-09-09 23:00:00.000,2021-09-10 19:23:01.000
2310,149013,Circle K,Circle K,Circle K,2113 Robley Dr,E Broussard Rd,Lafayette,"Lafayette, LA",LA,70503,30.142578840745,-92.079334259033,Y,Y,Y,2021-09-10 01:10:38.094,2021-09-10 01:10:38.094,,2.70,2.0,1.27,1,2021-09-09 23:00:00.000,2021-09-10 19:23:01.000
2311,202291,Wellcome Shell,Shell,Wellcome,7101 Johnston St,Consitutional Dr,Lafayette,"Lafayette, LA",LA,70503,30.136628,-92.103882,Y,Y,Y,2021-09-10 02:24:41.628,2021-09-10 02:24:41.628,2021-09-09 22:24:14.422,2.85,4.0,1.0,1,2021-09-09 22:00:00.000,2021-09-10 19:23:01.000
2312,149670,Exxon,Exxon,Econo Mart,615 Rue Beiler Rd,W Congress St,Lafayette,"Lafayette, LA",LA,70506,30.196072,-92.091737,Y,Y,Y,2021-09-07 21:12:14.048,2021-09-07 21:12:15.197,,3.24,5.0,1.09,1,2021-09-09 23:00:00.000,2021-09-10 19:23:01.000
2313,192949,Murphy Express,Murphy Express,,900 Ambassador Caffery Parkway,Cameron St,Lafayette,"Lafayette, LA",LA,70506,30.232131,-92.06312,N,Y,N,2021-09-09 13:54:01.535,2021-09-08 20:18:46.449,2021-09-08 20:18:46.449,,0.0,0.99,1,2021-09-09 23:00:00.000,2021-09-10 19:23:01.000
2314,154410,Exxon,Exxon,Lee's,3525 N University Ave,LA-98,Lafayette,"Lafayette, LA",LA,70507,30.296015,-92.049712,Y,Y,Y,2021-09-05 23:49:26.822,2021-09-03 01:29:20.037,2021-09-03 01:29:19.753,,0.0,0.98,1,2021-09-09 23:00:00.000,2021-09-10 19:23:01.000
2315,201185,Exxon,Exxon,K & G On The Geaux,106 W Pont Des Mouton Rd,NE Evangeline Thoroughway,Lafayette,"Lafayette, LA",LA,70507,30.274158,-92.021341,Y,Y,Y,2021-09-10 13:47:30.206,2021-09-09 12:14:13.147,2021-09-09 12:14:13.147,2.99,5.0,15.45,2,2021-09-09 22:00:00.000,2021-09-10 19:23:01.000
2316,82200,Circle K,Circle K,,624 E Kaliste Saloom Rd,Theo St,Lafayette,"Lafayette, LA",LA,70508-2545,30.197403154908,-92.003588676453,Y,Y,Y,2021-09-09 23:49:37.069,2021-09-09 23:49:37.069,,2.84,3.0,1.17,1,2021-09-09 23:00:00.000,2021-09-10 19:23:01.000
2317,127646,Chevron,Chevron,,2311 W Pinhook Rd,Energy Pkwy,Lafayette,"Lafayette, LA",LA,70508,30.183372246683,-92.007561028004,N,Y,Y,2021-09-03 14:46:42.434,2021-09-04 13:26:09.254,,,0.0,1.02,1,2021-09-09 23:00:00.000,2021-09-10 19:23:01.000
2318,138459,Mobil,Mobil,Fuel Up,2077 Verot School Rd,Failla Rd,Lafayette,"Lafayette, LA",LA,70508,30.155748,-92.024216,N,Y,Y,2021-09-08 20:14:16.997,2021-09-07 12:30:12.687,,,0.0,1.52,1,2021-09-09 22:00:00.000,2021-09-10 19:23:01.000
2319,50677,Shell,Shell,Cracker Barrel,1811 S State St,Jacqulyn Rd,Abbeville,"Lafayette, LA",LA,70510,29.956538038254,-92.141057252884,N,Y,N,2021-09-09 21:39:11.485,2021-09-10 14:35:29.441,2021-09-09 21:39:12.249,2.92,4.0,1.76,1,2021-09-09 23:00:00.000,2021-09-10 19:23:01.000
2320,172266,Bon Amis Grocery,,,18905 N LA-82,Audubon Rd,Abbeville,"Lafayette, LA",LA,70510,29.875932,-92.174478,N,Y,Y,2021-09-04 23:19:46.355,,,,0.0,2.68,1,2021-09-09 20:00:00.000,2021-09-10 19:23:01.000
2321,104428,Murphy USA,Murphy USA,,3007 Veterans Memorial Dr,Broadmoor Blvd,Abbeville,"Lafayette, LA",LA,70510,29.970709,-92.095081,N,Y,N,2021-09-07 14:55:25.852,2021-09-08 20:36:28.385,2021-09-07 14:55:25.852,,0.0,1.02,1,2021-09-09 18:00:00.000,2021-09-10 19:23:01.000
2322,148027,Stelly's Grocery,,,22240 S  LA-82   ,Pine Island Rd,Abbeville,"Lafayette, LA",LA,70510 ,29.825915549136,-92.315272092819,Y,Y,Y,2021-09-06 20:18:00.722,2021-09-06 20:18:00.722,2021-09-06 20:18:00.722,,0.0,5.18,2,2021-09-06 14:00:00.000,2021-09-10 19:23:01.000
2323,148487,Mini Mart,,,104 W Pound St,Market St,Arnaudville,"Lafayette, LA",LA,70512,30.404235413772,-91.929519257078,Y,Y,Y,2021-09-04 00:51:32.729,2021-08-29 16:16:30.608,,,0.0,1.36,1,2021-09-05 19:00:00.000,2021-09-10 19:23:01.000
2324,50786,Shell,Shell,Hit N Run?,2999 Grandpoint Hwy,I-10,Henderson,"Lafayette, LA",LA,70517,30.313311045347,-91.832286715508,N,Y,Y,2021-09-05 18:27:23.015,2021-09-03 01:21:25.421,2021-09-03 01:21:24.604,2.99,5.0,2.0,1,2021-09-09 23:00:00.000,2021-09-10 19:23:01.000
2325,110847,Chevron,Chevron,Food-N-Fun,156 W Mills Hwy,Main Hwy,Breaux Bridge,"Lafayette, LA",LA,70517,30.2803452344,-91.912471354008,Y,Y,N,2021-09-09 13:53:53.587,2021-09-09 13:53:53.587,2021-09-09 13:53:53.587,2.91,4.0,2.73,1,2021-09-09 23:00:00.000,2021-09-10 19:23:01.000
2326,203803,Cajun Fire Fuel Stop,,,1898 W Mills Ave,W Mills Ave,Breaux Bridge,"Lafayette, LA",LA,70517,30.24230602722,-91.962496173571,Y,Y,Y,2021-09-08 23:07:48.397,2021-09-08 23:07:48.397,,,0.0,34.31,3,2021-09-08 10:00:00.000,2021-09-10 19:23:01.000
2327,146865,Shell,Shell,,249 S Main St,W Ebey St,Church Point,"Lafayette, LA",LA,70525,30.403024597364,-92.215149253607,N,Y,Y,2021-09-05 20:48:01.551,,,2.89,4.0,1.06,1,2021-09-09 23:00:00.000,2021-09-10 19:23:01.000
2328,159318,Chevron,Chevron,,530 N Eastern Ave,E Hutchinson Ave,Crowley,"Lafayette, LA",LA,70526,30.217597,-92.365474,N,Y,N,2021-09-09 21:30:04.380,2021-09-03 03:02:07.015,2021-09-03 03:02:07.015,2.95,5.0,1.01,1,2021-09-09 21:00:00.000,2021-09-10 19:23:01.000
2329,150365,Conoco,Conoco,Exit 80 Travel Plaza,2011 N Cherokee Dr,LA-13,Crowley,"Lafayette, LA",LA,70526,30.236688,-92.385158,N,Y,Y,2021-09-03 19:49:31.891,2020-10-18 19:34:04.453,,2.89,4.0,2.23,1,2021-09-09 20:00:00.000,2021-09-10 19:23:01.000
2330,154449,Shell,Shell,,LA-13,Lovell St,Crowley,"Lafayette, LA",LA,70526,30.197406,-92.362387,Y,Y,N,2021-09-05 18:09:54.933,2021-09-05 18:10:00.498,2021-09-05 18:09:59.949,2.89,4.0,13.7,2,2021-09-09 20:00:00.000,2021-09-10 19:23:01.000
2331,166194,Texaco,Texaco,,908 W Lastie St,N Rd,Erath,"Lafayette, LA",LA,70533,29.960303,-92.049556,N,Y,N,2021-09-04 22:40:20.308,2021-09-04 22:38:57.463,2021-09-04 02:06:55.145,,0.0,2.38,1,2021-09-09 20:00:00.000,2021-09-10 19:23:01.000
2332,167216,Shelby's Service Station,,,317 Front Ave,US-90 W,Estherwood,"Lafayette, LA",LA,70534,30.180729,-92.46333,Y,Y,Y,,,,,0.0,1.0,1,2021-09-09 19:00:00.000,2021-09-10 19:23:01.000
2333,77022,Murphy USA,Murphy USA,,1530 US-190,Stanford Rd,Eunice,"Lafayette, LA",LA,70535,30.494607,-92.447412,Y,Y,Y,2021-09-10 14:39:32.084,2021-09-10 14:39:32.083,2021-09-06 15:31:19.787,2.77,3.0,1.65,1,2021-09-09 17:00:00.000,2021-09-10 19:23:01.000
2334,50772,Shell,Shell,,405 Main St,Caffery St,Franklin,New Orleans,LA,70538,29.789833,-91.499814,Y,Y,Y,2021-09-09 01:31:14.734,2021-09-09 01:31:15.658,,,0.0,1.73,1,2021-09-09 23:00:00.000,2021-09-10 19:23:01.000
2335,100376,Mobil,Mobil,Boozer's Grocery,1100 Iberia St,Barrow St,Franklin,New Orleans,LA,70538,29.796477,-91.512853,N,Y,Y,2021-09-04 10:25:56.663,2021-09-05 01:21:51.666,,,0.0,1.58,1,2021-09-09 23:00:00.000,2021-09-10 19:23:01.000
2336,175832,Canal,,,1220 Main St,Herbert St,Jeanerette,"Lafayette, LA",LA,70544,29.913625,-91.665561,N,Y,Y,2021-09-01 22:56:35.469,2021-09-01 22:56:35.469,,,0.0,0.55,1,2021-09-09 23:00:00.000,2021-09-10 19:23:01.000
2337,154409,Exxon,Exxon,Nick's Food Mart,1301 W Veterans Memorial Dr,N Montgomery Ave,Kaplan,"Lafayette, LA",LA,70548-4501,30.001546,-92.298977,Y,Y,Y,2021-09-10 18:01:00.718,2021-09-10 18:01:01.734,,2.93,4.0,3.98,1,2021-09-09 23:00:00.000,2021-09-10 19:23:01.000
2338,167803,Pecan Island Food,,,27024 W LA-82,Irba Rd,Kaplan,"Lafayette, LA",LA,70548,29.647319,-92.423569,Y,Y,Y,,,,,0.0,2.2,1,2021-09-06 14:00:00.000,2021-09-10 19:23:01.000
2339,176443,Spring Market,Walmart,,620 LA-26,4th St,Lake Arthur,"Lafayette, LA",LA,70549,30.088642,-92.671554,Y,Y,Y,,2021-09-04 00:49:03.955,,,0.0,7.87,2,2021-09-09 22:00:00.000,2021-09-10 19:23:01.000
2340,103195,Conoco,,The Quick Stop,7253 Veterans Memorial Hwy,LA-10,Barber Spur,"Lafayette, LA",LA,70554,30.690779717918,-92.427833676338,Y,Y,Y,,,,,0.0,1.89,1,2021-09-09 20:00:00.000,2021-09-10 19:23:01.000
2341,103192,Exxon,Exxon,Mamou Express,1326 6th St,Poinciana Ave,Mamou,"Lafayette, LA",LA,70554,30.640666562809,-92.4192237854,Y,Y,Y,,,,,0.0,6.73,2,2021-09-06 22:00:00.000,2021-09-10 19:23:01.000
2342,204402,Shell,,,8400 Maurice Ave,Opta St,Maurice,"Lafayette, LA",LA,70555,30.10954,-92.124921,Y,Y,Y,2021-09-09 00:09:28.138,2021-09-09 00:09:29.844,2021-09-09 00:09:28.918,2.89,4.0,2.65,1,2021-09-09 22:00:00.000,2021-09-10 19:23:01.000
2343,204797,Texaco,Texaco,,5884 US Hwy 167,Pacific Rd,Maurice,"Lafayette, LA",LA,70555,30.0665544929,-92.1244449914,Y,Y,Y,2021-09-08 20:07:35.482,2021-09-08 20:07:35.482,2021-09-08 20:07:35.482,,0.0,1.72,1,2021-09-09 22:00:00.000,2021-09-10 19:23:01.000
2344,50842,Circle K,Circle K,,900 Jefferson Terrace,Dale St,New Iberia,"Lafayette, LA",LA,70560,29.986088721663,-91.81248664856,N,Y,Y,2021-09-03 00:35:06.413,2021-09-03 00:35:06.413,,,0.0,6.63,2,2021-09-09 23:00:00.000,2021-09-10 19:23:01.000
2345,78444,Pop-N-Fuel,,,204 Center St,St Peter St,New Iberia,"Lafayette, LA",LA,70560,30.002558,-91.816975,N,Y,Y,2021-09-05 16:30:45.636,2021-09-05 16:19:47.108,,,0.0,1.75,1,2021-09-09 23:00:00.000,2021-09-10 19:23:01.000
2346,90680,Texaco,Texaco,CJ's Get 'n Go,4814 US-90 E,Neco Town Rd,New Iberia,"Lafayette, LA",LA,70560,29.945537,-91.782531,N,N,Y,2021-09-03 15:38:54.451,2021-09-02 12:15:09.706,,,0.0,1.08,1,2021-09-09 22:00:00.000,2021-09-10 19:23:01.000
2347,167642,E J Easy Shop Grocery,,,4017 Avery Island Rd,Doc Rd,New Iberia,"Lafayette, LA",LA,70560,29.952192,-91.872724,N,Y,Y,2021-09-05 20:39:27.900,2021-09-03 19:50:46.790,,,0.0,1.08,1,2021-09-03 19:00:00.000,2021-09-10 19:23:01.000
2348,50839,Chevron,Chevron,Food-N-Fun,100 Marie St,Duperier St,New Iberia,"Lafayette, LA",LA,70563,30.006976618628,-91.814460754395,N,Y,N,2021-09-06 14:48:03.673,2021-09-05 22:02:29.361,2021-09-04 12:58:31.884,2.99,5.0,2.64,1,2021-09-09 23:00:00.000,2021-09-10 19:23:01.000
2349,148544,Chevron,Chevron,Short Stop,1327 Creswell Ln,I-49,Opelousas,"Lafayette, LA",LA,70570,30.519278316227,-92.070415415205,Y,Y,N,2021-09-08 23:14:46.754,2021-09-08 23:14:45.377,2021-09-08 14:52:52.090,,0.0,1.79,1,2021-09-09 21:00:00.000,2021-09-10 19:23:01.000
2350,155338,Doc Fuel,,, LA-104,St Paul Ave,Opelousas,"Lafayette, LA",LA,70570,30.539299,-92.153698,Y,Y,Y,,,,,0.0,6.67,2,2021-09-01 21:00:00.000,2021-09-10 19:23:01.000
2351,167630,Charlies Corner Store,,,14205 Elm St,Hare St,Perry,"Lafayette, LA",LA,70575,29.948088,-92.157564,N,Y,Y,2021-09-06 09:55:41.931,2021-09-08 20:36:45.609,,,0.0,1.0,1,2021-09-09 20:00:00.000,2021-09-10 19:23:01.000
2352,167533,Texaco,Texaco,,818 S Henry St,Gooch St,Abbeville,"Lafayette, LA",LA,70510,29.969927,-92.147875,N,Y,N,2021-09-06 17:24:14.273,,2021-09-06 17:24:18.639,,0.0,3.2,1,2021-09-09 12:00:00.000,2021-09-10 19:23:01.000
2353,146273,Chevron,Chevron,,221 S Poydras St,Grand Point Hwy,Breaux Bridge,"Lafayette, LA",LA,70517,30.275997110575,-91.893697232008,Y,Y,N,2021-09-06 21:30:28.519,2021-09-06 21:30:30.715,2021-09-06 15:52:29.551,,0.0,1.0,1,2021-09-09 23:00:00.000,2021-09-10 19:23:01.000
2354,137291,Texaco,Texaco,Silver's Travel Cent,2247 Rees St,I-10  ,Breaux Bridge,"Lafayette, LA",LA,70517,30.298086269535,-91.917704343796,Y,Y,Y,2021-09-08 11:43:41.222,2021-09-08 11:43:41.222,2021-09-08 11:43:41.222,,0.0,1.02,1,2021-09-09 23:00:00.000,2021-09-10 19:23:01.000
2355,151022,Shell,Shell,,2232 Rees  Extension,I-10,Breaux Bridge,"Lafayette, LA",LA,70517,30.297511,-91.916479,Y,Y,N,2021-09-09 14:00:57.644,2021-09-09 14:00:57.644,2021-09-09 14:00:57.644,,0.0,1.08,1,2021-09-09 21:00:00.000,2021-09-10 19:23:01.000
2356,50741,Shell,Shell,,1240 Albertson Pkwy,US-90 E,Broussard,"Lafayette, LA",LA,70518,30.139894350189,-91.946811676025,N,Y,Y,2021-09-06 00:04:11.718,2021-09-05 17:41:08.351,2021-09-05 17:41:07.926,2.99,5.0,2.12,1,2021-09-09 23:00:00.000,2021-09-10 19:23:01.000
2357,199913,RaceTrac,RaceTrac,,1417 Youngsville Hwy,Ambassador Caffery Pkwy,Broussard,"Lafayette, LA",LA,70518,30.13789,-91.98977,Y,Y,N,2021-09-09 13:26:47.159,2021-09-09 13:26:48.327,2021-09-08 01:14:16.458,2.69,2.0,8.5,2,2021-09-09 20:00:00.000,2021-09-10 19:23:01.000
2358,154448,Chevron,Chevron,,776 Odd Fellows Rd,Tower Rd,Crowley,"Lafayette, LA",LA,70526,30.231094,-92.363026,Y,Y,Y,2021-09-09 23:37:49.896,2021-09-09 23:37:49.896,2021-09-03 18:16:20.350,2.99,5.0,1.8,1,2021-09-09 23:00:00.000,2021-09-10 19:23:01.000
2359,50762,Roady's,Roady's,Lucky Deuces,3002 Daulat Drive,I-10,Duson,"Lafayette, LA",LA,70529,30.24549484,-92.1939621,Y,Y,Y,2021-09-10 16:42:10.834,2021-09-10 16:42:10.834,2021-09-10 16:42:10.834,,0.0,1.32,1,2021-09-09 22:00:00.000,2021-09-10 19:23:01.000
2360,146790,Exxon,Exxon,,412 W Martin Luther King Dr,I-49 Frontage Rd,Grand Coteau,"Lafayette, LA",LA,70541,30.417391112303,-92.051879167557,N,Y,Y,2021-09-08 23:11:17.510,2021-09-06 21:17:56.874,2018-12-12 14:59:23.296,2.81,3.0,7.07,2,2021-09-09 20:00:00.000,2021-09-10 19:23:01.000
2361,113883,E-Z Mart,E-Z Mart,,519 Shankland Ave  ,Elton Dr,Jennings,"Lafayette, LA",LA,70546,30.231395470851,-92.662832736969,Y,Y,Y,2021-09-05 17:02:53.222,2021-09-04 17:28:38.316,,,0.0,2.29,1,2021-09-09 21:00:00.000,2021-09-10 19:23:01.000
2362,135140,Phillips 66,Phillips 66,The Corner Store,314 N Cutting Ave,E Nezpique St,Jennings,"Lafayette, LA",LA,70546,30.223303613012,-92.654705643654,Y,Y,Y,2021-09-05 14:43:38.791,2021-09-05 14:43:39.691,,,0.0,6.63,2,2021-09-08 22:00:00.000,2021-09-10 19:23:01.000
2363,158913,Simon's Northside,,,212 E 11th St,N Faye Ave,Kaplan,"Lafayette, LA",LA,70548-2635,30.00618,-92.280838,Y,Y,Y,,,,,0.0,1.32,1,2021-09-08 20:00:00.000,2021-09-10 19:23:01.000
2364,103191,Chevron,Chevron,,1329 6th St,Poinciana Ave,Mamou,"Lafayette, LA",LA,70554,30.640666562809,-92.420039176941,Y,Y,Y,,,,2.99,5.0,1.29,1,2021-09-07 13:00:00.000,2021-09-10 19:23:01.000
2365,50846,RaceWay,Raceway,,2800 LA-14,US-90,New Iberia,"Lafayette, LA",LA,70560,29.985940037603,-91.85359954834,Y,Y,N,2021-09-10 02:09:38.532,2021-09-10 02:09:40.730,2021-09-10 00:48:38.869,2.69,2.0,3.45,1,2021-09-09 22:00:00.000,2021-09-10 19:23:01.000
2366,148647,Chevron,Chevron,,1309 Jane St,Par Rd 604,New Iberia,"Lafayette, LA",LA,70560,30.025876,-91.823814,Y,Y,Y,2021-09-09 11:53:54.741,,,2.91,4.0,1.02,1,2021-09-09 23:00:00.000,2021-09-10 19:23:01.000
2367,139539,Exxon,Exxon,On the Run,3310 Coteau Rd,Labit Rd,New Iberia,"Lafayette, LA",LA,70560,30.051117,-91.926641,Y,Y,N,2021-09-07 11:36:29.985,2021-09-07 11:36:37.833,2021-09-07 11:36:36.385,3.05,5.0,0.97,1,2021-09-09 23:00:00.000,2021-09-10 19:23:01.000
2368,191335,Texaco,Texaco,,7707 Freetown Rd,Freetown Rd,New Iberia,"Lafayette, LA",LA,70560,30.050318,-91.931684,Y,Y,Y,2021-09-10 19:11:38.008,2021-09-10 19:11:39.999,2021-09-10 19:11:39.268,3.05,5.0,3.03,1,2021-09-09 22:00:00.000,2021-09-10 19:23:01.000
2369,156064,CITGO,CITGO,,9508 LA-182,US-167,Opelousas,"Lafayette, LA",LA,70570,30.586377,-92.06935,N,Y,N,2021-09-04 22:07:15.112,2021-09-04 22:07:18.092,2021-09-04 03:59:51.803,,0.0,4.97,1,2021-09-06 20:00:00.000,2021-09-10 19:23:01.000
2370,138943,Chevron,Chevron,Next to Burger King,1045 Churchpoint Hwy ,Robert's Cove Rd,Rayne,"Lafayette, LA",LA,70578,30.253395577897,-92.270178794861,N,Y,Y,2021-09-05 20:58:32.248,2021-09-05 14:57:55.466,,3.08,5.0,0.94,1,2021-09-09 20:00:00.000,2021-09-10 19:23:01.000
2371,138953,Exxon,Exxon,Frog City Travel Pla,1418 N Polk St,The Blvd,Rayne,"Lafayette, LA",LA,70578,30.250247622841,-92.268234193325,N,Y,Y,2021-09-02 23:00:09.726,,,,0.0,15.55,2,2021-09-09 23:00:00.000,2021-09-10 19:23:01.000
2372,50893,Shell,Shell,,1806 St Mary St,Patti Ln,Scott,"Lafayette, LA",LA,70583,30.243398386689,-92.105909585953,N,Y,Y,2021-09-09 22:25:23.759,2021-09-09 19:07:41.730,,2.73,2.0,4.83,1,2021-09-09 21:00:00.000,2021-09-10 19:23:01.000
2373,203134,Exxon,Exxon,,1505 Bonin Rd,Ambassador Caffery Pkwy,Broussard,"Lafayette, LA",LA,70592,30.1357,-92.007086,Y,Y,N,2021-09-09 13:24:17.966,2021-09-09 13:24:19.644,2021-09-06 17:55:05.224,,0.0,1.7,1,2021-09-09 23:00:00.000,2021-09-10 19:23:01.000
2374,143113,Exxon,Exxon,,1130 Broad St,Enterprise Blvd,Lake Charles,Lake Charles,LA,70601,30.227196,-93.204657,Y,Y,Y,2020-11-19 16:23:11.604,2020-11-19 16:23:13.411,2020-11-19 16:23:12.212,2.89,4.0,1.84,1,2021-09-09 22:00:00.000,2021-09-10 19:23:01.000
2375,169580,Chevron,Chevron,,3005 Lake St,W Hale St,Lake Charles,Lake Charles,LA,70601,30.201738143607,-93.232150375843,Y,Y,Y,2020-10-04 19:53:51.915,,2020-10-04 19:53:51.915,3.05,5.0,2.92,1,2021-09-09 21:00:00.000,2021-09-10 19:23:01.000
2376,194095,Kroger,Kroger,,4760 Nelson Rd,Country Club,Lake Charles,Lake Charles,LA,70601,30.171639649117,-93.249914646148,Y,Y,Y,2020-11-17 21:10:39.265,2020-11-17 21:10:39.265,2020-11-17 21:10:39.265,,0.0,10.8,2,2021-09-09 20:00:00.000,2021-09-10 19:23:01.000
2377,145869,Time Loop,Exxon,,1000 N Martin Luther King Hwy,Moeling St,Lake Charles,Lake Charles,LA,70601,30.249720894198,-93.180177211761,Y,Y,Y,,,,,0.0,0.76,1,2021-09-09 21:00:00.000,2021-09-10 19:23:01.000
2378,147438,Valero,Valero,Kirkman St Discount,3016 Kirkman St,Craft St,Lake Charles,Lake Charles,LA,70601-8682,30.201311,-93.210115,Y,Y,Y,,,,,0.0,0.96,1,2021-09-09 22:00:00.000,2021-09-10 19:23:01.000
2379,138244,Chevron,Chevron,U Pak It,801 Country Club Rd,Lake St,Lake Charles,Lake Charles,LA,70605,30.168523088006,-93.232778012753,Y,Y,Y,2021-09-04 14:46:32.865,2021-09-04 14:46:34.409,,2.89,4.0,1.51,1,2021-09-09 22:00:00.000,2021-09-10 19:23:01.000
2380,114913,Conoco,Conoco,Shop Rite  81,4447 Lake St,W McNeese St,Lake Charles,Lake Charles,LA,70605-4311,30.176369955344,-93.232035040855,Y,Y,Y,2020-11-05 14:12:17.592,2020-11-05 14:12:17.593,2020-11-05 14:12:17.593,2.99,5.0,1.02,1,2021-09-09 21:00:00.000,2021-09-10 19:23:01.000
2381,159173,Chevron,Chevron,,5841 Nelson Rd,Dove Ln,Lake Charles,Lake Charles,LA,70605 ,30.1510597,-93.2492175,Y,Y,Y,2020-10-29 22:07:07.635,2020-10-29 22:07:07.636,,,0.0,1.0,1,2021-09-09 16:00:00.000,2021-09-10 19:23:01.000
2382,173476,Circle K,Circle K,,107 Jefferson Dr,McNeese St,Lake Charles,Lake Charles,LA,70605,30.175813,-93.218313,Y,Y,Y,2019-02-14 23:48:29.554,2020-09-01 17:37:20.077,,2.98,5.0,1.38,1,2021-09-09 23:00:00.000,2021-09-10 19:23:01.000
2383,136554,Chevron,Chevron,,1117 E McNeese St,S Louisiana Ave,Lake Charles,Lake Charles,LA,70607-4753,30.1761958,-93.2053396,Y,Y,Y,2020-11-25 01:13:57.351,2019-07-14 18:30:56.679,,,0.0,1.16,1,2021-09-09 22:00:00.000,2021-09-10 19:23:01.000
2384,151033,Exxon,Exxon,,1900 Sam Houston Jones Pkwy,N Perkins Ferry Rd,Lake Charles,Lake Charles,LA,70611,30.30106,-93.233262,Y,Y,Y,2020-09-04 18:14:34.968,,,,0.0,1.09,1,2021-09-09 20:00:00.000,2021-09-10 19:23:01.000
2385,154839,Exxon,Exxon,,US-171,Gillis Cutoff,Lake Charles,Lake Charles,LA,70611,30.373496,-93.201179,Y,Y,Y,,,,,0.0,2.03,1,2021-09-09 15:00:00.000,2021-09-10 19:23:01.000
2386,131704,Shell,Shell,,3421 Broad St,Falcone St,Lake Charles,Lake Charles,LA,70615,30.227628190726,-93.1662940979,Y,Y,Y,,,,,0.0,1.0,1,2021-09-09 17:00:00.000,2021-09-10 19:23:01.000
2387,194660,Sunoco,Sunoco,,3201 Gestner Memorial Dr,East Prien Lake Rd,Lake Charles,Lake Charles,LA,70615,30.198905,-93.179461,Y,Y,Y,2021-09-05 02:30:41.530,2021-09-05 02:30:41.530,2021-09-05 02:30:41.530,2.67,1.0,0.75,1,2021-09-09 23:00:00.000,2021-09-10 19:23:01.000
2388,171092,Valero,Valero,,1193 LA-12,Edna St,Dequincy,Lake Charles,LA,70633,30.449312,-93.414163,Y,Y,Y,,,,,0.0,3.99,1,2021-09-06 01:00:00.000,2021-09-10 19:23:01.000
2389,154105,Fastrac,,,402 W 1st St,N Pine St,DeRidder,Lake Charles,LA,70634,30.846954,-93.28883,Y,Y,Y,,,,,0.0,1.39,1,2021-09-09 22:00:00.000,2021-09-10 19:23:01.000
2390,150768,Conoco,Conoco,Brown's,650 Main St,Amoco Rd,Hackberry,Lake Charles,LA,70645,29.995102,-93.35389,Y,Y,Y,2020-11-19 00:16:40.359,,,,0.0,38.42,3,2021-09-09 19:00:00.000,2021-09-10 19:23:01.000
2391,165744,Exxon,Exxon,,905 Main St,Portie Dr,Hackberry,Lake Charles,LA,70645,29.993516,-93.361513,Y,Y,Y,,,,,0.0,1.02,1,2021-09-09 20:00:00.000,2021-09-10 19:23:01.000
2392,149041,Exxon,Exxon,,2602 LA-14,LA-3092,Lake Charles,Lake Charles,LA,70647,30.158297,-93.179339,Y,Y,Y,,2020-08-25 18:08:46.200,,,0.0,2.72,1,2021-09-09 20:00:00.000,2021-09-10 19:23:01.000
2393,171621,Valero,Valero,,4660 LA-14 E,E Ward Line Rd,Iowa,Lake Charles,LA,70647,30.157508,-93.123647,Y,Y,Y,2020-10-08 18:38:29.402,2020-10-08 18:38:29.402,2020-10-08 18:38:29.395,,0.0,19.7,2,2021-09-08 23:00:00.000,2021-09-10 19:23:01.000
2394,165883,Thibodeaux Grocery,,,13908 US-171,1st Pentecostal Church Rd,Longville,Lake Charles,LA,70652,30.52707,-93.232974,Y,Y,Y,2020-09-29 15:34:21.586,2020-09-29 15:34:29.390,2020-09-29 15:34:32.856,,0.0,9.1,2,2021-09-09 21:00:00.000,2021-09-10 19:23:01.000
2395,149984,CITGO,E-Z Mart,E-Z Mart,4371 LA-12,Old River Rd,Starks,Lake Charles,LA,70661,30.316888,-93.669822,Y,Y,Y,,,,,0.0,1.04,1,2021-09-09 23:00:00.000,2021-09-10 19:23:01.000
2396,153779,Exxon,Exxon,,130 N Beglis Pkwy,E Napoleon St,Sulphur,Lake Charles,LA,70663,30.237052,-93.359013,Y,Y,Y,2019-07-14 17:32:55.029,2019-07-14 17:32:55.729,,,0.0,1.45,1,2021-09-09 23:00:00.000,2021-09-10 19:23:01.000
2397,151961,E-Z Mart	,Shell,,740 N Cities Service Hwy,E Napoleon St,Sulphur,Lake Charles,LA,70663-4149,30.236404,-93.324954,Y,Y,Y,2020-11-25 02:38:27.101,2020-11-25 02:38:27.100,,,0.0,0.84,1,2021-09-09 21:00:00.000,2021-09-10 19:23:01.000
2398,149614,Shell,Shell,,1600 Maplewood Dr,Beglis Pkwy,Sulphur,Lake Charles,LA,70663,30.227715,-93.359037,Y,Y,Y,2020-09-24 17:10:51.643,2020-09-24 17:10:51.643,,,0.0,1.0,1,2021-09-09 22:00:00.000,2021-09-10 19:23:01.000
2399,150511,Exxon,Exxon,,7621 LA-27,Burton Shipyard Rd,Sulphur,Lake Charles,LA,70665,30.102815,-93.358782,Y,Y,Y,,,,,0.0,1.82,1,2021-09-09 21:00:00.000,2021-09-10 19:23:01.000
2400,169118,Texaco,Texaco,,4796 Hwy 27 S,Burleson Rd,Sulphur,Lake Charles,LA,70665,30.178494,-93.376365,Y,Y,Y,,,,,0.0,9.67,2,2021-09-09 17:00:00.000,2021-09-10 19:23:01.000
2401,172592,Hebert's Country Grocery,,,1880 LA-109 S,LA-3063,Vinton,Lake Charles,LA,70668,30.195829259531,-93.638144955039,Y,Y,Y,2021-05-12 18:00:36.283,2020-08-28 14:17:57.740,,,0.0,1.0,1,2021-09-09 21:00:00.000,2021-09-10 19:23:01.000
2402,154147,Valero,Valero,,Frontage Rd,Toomey Rd,Vinton,Lake Charles,LA,70668,30.151094,-93.637579,Y,Y,N,2021-09-07 17:07:29.657,2021-09-07 17:07:29.657,2021-09-07 17:07:29.657,,0.0,11.42,2,2021-09-09 19:00:00.000,2021-09-10 19:23:01.000
2403,194116,Shell,Shell,Smoker's Paradise,2363 LA-109,I-10,Vinton,Lake Charles,LA,70668-6109,30.158149454926,-93.638421893119,Y,Y,Y,2020-09-04 15:54:54.825,2020-09-04 15:54:54.825,2020-09-04 15:54:54.817,,0.0,4.3,1,2021-09-09 21:00:00.000,2021-09-10 19:23:01.000
2404,150162,Circle K,Circle K,,1205 Guillory St,Houston River Rd,Westlake,Lake Charles,LA,70669,30.248256,-93.266748,Y,Y,Y,2020-09-08 14:09:06.571,2020-09-08 14:09:05.415,,,0.0,1.01,1,2021-09-09 21:00:00.000,2021-09-10 19:23:01.000
2405,198899,Shell,Shell,,1920 Houston River Rd,Ann Dr,Westlake,Lake Charles,LA,70669,30.251913,-93.271764,Y,Y,Y,2020-11-03 23:18:02.642,2020-11-03 23:18:03.417,2020-11-03 23:18:03.059,,0.0,1.02,1,2021-09-09 21:00:00.000,2021-09-10 19:23:01.000
2406,155356,Best Stop,,,11089 Springfield Rd,Ellis Ln,Denham Springs,Baton Rouge,LA,70706,30.591578,-90.903496,N,N,Y,2021-09-04 15:16:03.545,2021-09-04 15:16:07.728,,2.89,4.0,1.7,1,2021-09-09 23:00:00.000,2021-09-10 19:23:01.000
2407,141987,Conoco,Conoco,Doo's 1 Seafood & De,34960 LA-16,Olivia Dr,Watson,Baton Rouge,LA,70706,30.571069322467,-90.955354571342,Y,Y,N,2021-09-08 23:01:59.571,2021-09-08 23:02:04.604,2021-09-08 23:02:02.637,,0.0,2.03,1,2021-09-09 23:00:00.000,2021-09-10 19:23:01.000
2408,122125,Watson Fuel Express,Exxon,Story's Grocery,34036 LA-16,LA-1024,Watson,Baton Rouge,LA,70706,30.561786713812,-90.955388098955,Y,Y,Y,2021-09-09 17:50:57.187,2021-09-09 17:50:57.636,2021-09-09 17:50:57.419,,0.0,0.88,1,2021-09-09 23:00:00.000,2021-09-10 19:23:01.000
2409,155971,Shell,Shell,Big River,28520 LA-43,James Chapel Rd,Albany,Baton Rouge,LA,70711,30.482445729179,-90.579013824463,N,N,N,2021-09-04 00:01:24.823,2021-09-04 00:01:24.825,2021-09-04 00:01:24.825,,0.0,1.0,1,2021-09-09 22:00:00.000,2021-09-10 19:23:01.000
2410,111511,Chevron,Chevron,Jett's Food Mart  6,9737 Plank Rd,LA-63,Clinton,Baton Rouge,LA,70722,30.852297719557,-91.006236076355,N,Y,Y,2021-09-05 22:42:59.761,2021-09-04 14:29:52.314,2021-09-04 14:29:51.766,,0.0,7.87,2,2021-09-09 19:00:00.000,2021-09-10 19:23:01.000
2411,177536,Dollar General,Dollar General,,9181 LA-67,Haynes St,Clinton,Baton Rouge,LA,70722,30.847117468482,-91.000549793243,N,Y,N,2021-09-03 15:17:15.766,,2021-09-03 15:17:15.766,,0.0,3.8,1,2021-09-05 21:00:00.000,2021-09-10 19:23:01.000
2422,95516,Exxon,Exxon,Brother's Food Mart,4115 Airline Dr,Pasadena Ave,Metairie,New Orleans,LA,70001,29.975815,-90.173012,N,N,N,2021-09-03 12:38:01.678,2021-09-03 12:38:01.679,2021-09-03 12:38:01.679,,0.0,3.14,1,2021-09-09 22:00:00.000,2021-09-10 19:23:01.000
2423,50826,Sam's Club,Sam's Club,,3900 Airline Dr,Cleary Ave,Metairie,New Orleans,LA,70001,29.975066912386,-90.170685052872,Y,Y,Y,2021-09-10 18:29:58.251,2021-09-10 18:29:58.767,,2.56,1.0,0.92,1,2021-09-09 23:00:00.000,2021-09-10 19:23:01.000
2424,56150,Shell,Shell,,3534 W Edenborn Ave,Esplanade Ave,Metairie,New Orleans,LA,70002,30.013379,-90.161701,N,N,Y,2021-09-01 01:55:16.294,2021-09-01 01:55:16.294,,,0.0,1.0,1,2021-09-09 22:00:00.000,2021-09-10 19:23:01.000
2425,56145,Shell,Shell,,5900 W Metairie Ave,Elise Ave,Metairie,New Orleans,LA,70003,29.983708,-90.198659,N,Y,N,2021-09-07 15:09:50.105,2021-09-07 15:09:51.368,2021-09-07 15:09:50.744,2.89,4.0,1.0,1,2021-09-09 23:00:00.000,2021-09-10 19:23:01.000
2426,106729,Discount Zone,,,8824 Veterans Memorial Blvd,Mississippi Ave,Metairie,New Orleans,LA,70003,30.005205158697,-90.225251913071,Y,Y,Y,2021-09-10 15:43:00.689,2021-09-10 15:43:00.689,2021-09-10 15:43:00.666,2.97,5.0,1.61,1,2021-09-09 22:00:00.000,2021-09-10 19:23:01.000
2427,140871,CITGO,CITGO,,7571 W Judge Perez Dr,Rowley Blvd,Arabi,New Orleans,LA,70032,29.959135,-89.99249,Y,Y,Y,2021-09-04 13:13:40.762,2021-09-04 13:13:43.204,2021-09-02 22:55:25.047,2.99,5.0,0.98,1,2021-09-09 23:00:00.000,2021-09-10 19:23:01.000
2428,135832,Exxon,Exxon,,10850 LA-23,Cedar Dr,Belle Chasse,New Orleans,LA,70037,29.794691094795,-90.020376741886,Y,N,Y,2021-08-31 19:08:23.560,2021-09-08 16:41:06.767,,3.29,5.0,6.65,2,2021-09-09 18:00:00.000,2021-09-10 19:23:01.000
2429,135412,Exxon,Exxon,,14130 US-90,2nd St,Boutte,New Orleans,LA,70039,29.8918929,-90.4080163,N,Y,N,2021-09-06 21:59:52.266,2021-09-06 21:59:56.321,2021-09-06 21:59:54.772,,0.0,0.9,1,2021-09-09 23:00:00.000,2021-09-10 19:23:01.000
2430,128671,Gulf,Gulf,,2400 Paris Rd,Trist Pl,Chalmette,New Orleans,LA,70043,29.940878516775,-89.964884519577,Y,Y,Y,2021-09-05 16:23:03.651,2021-09-05 16:23:04.752,2019-08-19 17:03:29.000,2.84,3.0,30.92,3,2021-09-09 21:00:00.000,2021-09-10 19:23:01.000
2431,91452,Shell,Shell,Big River,13470 River Rd  ,Longview Dr,Destrehan,New Orleans,LA,70047,29.9489851486,-90.37525177002,N,N,N,2021-09-05 00:26:22.155,2021-09-05 00:26:22.155,2021-09-05 00:26:22.155,,0.0,1.01,1,2021-09-09 21:00:00.000,2021-09-10 19:23:01.000
2432,158170,MoniCarlo Fuel Stop,,,5353 W Airline Hwy,LA-54,Garyville,New Orleans,LA,70051,30.075855,-90.6250497,N,N,N,2021-09-08 04:31:00.239,2021-09-08 04:31:02.183,2021-09-08 04:31:10.591,,0.0,1.02,1,2021-09-09 21:00:00.000,2021-09-10 19:23:01.000
2433,56104,Key's Fuel Mart,,,2 Westbank Expy,Willow Dr,Gretna,New Orleans,LA,70053,29.913764844284,-90.050940513611,N,Y,Y,2021-09-04 19:03:27.927,2021-09-04 07:40:25.273,2021-09-04 07:40:25.273,,0.0,2.64,1,2021-09-09 22:00:00.000,2021-09-10 19:23:01.000
2434,56106,Shell,Shell,,1400 Lafayette St,Westbank Expy,Gretna,New Orleans,LA,70053,29.909096381865,-90.056315660477,N,N,N,2021-08-31 18:42:25.579,2021-08-31 18:42:25.579,2021-08-31 18:42:25.579,,0.0,1.24,1,2021-09-09 23:00:00.000,2021-09-10 19:23:01.000
2435,187572,Walmart Neighborhood Market,Walmart,,95 Westbank Expy,Evergreen Dr,Gretna,New Orleans,LA,70053,29.912553,-90.053183,Y,Y,Y,2021-09-08 15:16:40.969,2021-09-08 15:16:40.969,2021-09-05 14:21:59.904,,0.0,1.09,1,2021-09-09 23:00:00.000,2021-09-10 19:23:01.000
2436,56173,Fast Fuel,,Fast Fuel Mart,831 Whitney Ave,Stumpf Blvd,Gretna,New Orleans,LA,70056,29.911684057638,-90.042602866888,N,N,Y,2021-09-01 21:11:05.579,2021-09-01 21:11:06.935,,,0.0,1.58,1,2021-09-09 23:00:00.000,2021-09-10 19:23:01.000
2437,154417,CITGO,CITGO,,River Rd,Elm St,Hahnville,New Orleans,LA,70057,29.980627,-90.407946,Y,Y,Y,2021-09-05 21:31:54.441,2021-09-05 21:31:54.441,,,0.0,46.48,3,2021-09-09 22:00:00.000,2021-09-10 19:23:01.000
2438,56113,Chevron,Chevron,,647 Manhattan Blvd,8th St,Harvey,New Orleans,LA,70058,29.906808569393,-90.067806243896,Y,Y,Y,2021-09-05 17:36:36.811,2021-09-01 21:09:42.665,2021-09-01 06:07:23.971,,0.0,3.07,1,2021-09-09 22:00:00.000,2021-09-10 19:23:01.000
2439,74277,BG Mart,,,2248 Westbank Expy,Brown Ave,Harvey,New Orleans,LA,70058,29.899692,-90.07293,N,N,Y,2021-09-01 19:25:44.847,2021-09-01 19:25:45.442,,,0.0,1.0,1,2021-09-09 23:00:00.000,2021-09-10 19:23:01.000
2440,56117,Sam's Club,Sam's Club,,1527 Manhattan Blvd,Gretna Blvd,Harvey,New Orleans,LA,70058,29.89228,-90.05821,Y,Y,Y,2021-09-10 17:58:39.960,2021-09-10 17:58:40.433,,2.61,1.0,1.83,1,2021-09-09 21:00:00.000,2021-09-10 19:23:01.000
2441,56129,Shell,Shell,,3501 Williams Blvd,W Esplanade Ave,Kenner,New Orleans,LA,70062,30.020081962095,-90.239714384079,N,N,N,2021-09-02 18:15:11.749,2021-09-02 18:15:12.864,2021-09-02 18:15:12.330,,0.0,1.36,1,2021-09-09 23:00:00.000,2021-09-10 19:23:01.000
2442,146136,Chevron,Chevron,,17634 US-190,Frisco St,Port Barre,"Lafayette, LA",LA,70577,30.546205361444,-91.964341253042,N,Y,N,2021-09-05 14:38:12.789,,2021-09-01 13:57:32.713,2.99,5.0,1.13,1,2021-09-09 23:00:00.000,2021-09-10 19:23:01.000
2443,146134,Texaco,Texaco,,17680 US-190,Frisco St,Port Barre,"Lafayette, LA",LA,70577,30.546154467531,-91.963111460208,Y,Y,Y,2021-09-08 22:12:38.987,2019-07-14 21:37:13.562,,2.99,5.0,0.9,1,2021-09-09 22:00:00.000,2021-09-10 19:23:01.000
2444,138952,Shop Rite,,,800 The Blvd ,Campania St,Rayne,"Lafayette, LA",LA,70578,30.243645548209,-92.269341945648,Y,Y,Y,2021-09-08 00:22:18.672,2021-09-08 00:22:18.672,2021-09-08 00:22:18.672,,0.0,2.7,1,2021-09-09 21:00:00.000,2021-09-10 19:23:01.000
2445,128204,Chevron,Chevron,Peto's,15125 LA-395,I-10 ,Roanoke,"Lafayette, LA",LA,70581,30.253136083937,-92.74040222168,Y,Y,Y,2021-09-06 21:07:29.230,2021-09-06 21:07:30.955,2021-09-06 21:07:33.822,2.87,4.0,1.45,1,2021-09-05 19:00:00.000,2021-09-10 19:23:01.000
2446,50891,CITGO,CITGO,,804 S Main St,Hyacinth St,St Martinville,"Lafayette, LA",LA,70582,30.116858,-91.831715,N,Y,Y,2021-09-04 03:16:16.197,2021-09-04 23:03:14.399,,,0.0,1.42,1,2021-09-09 23:00:00.000,2021-09-10 19:23:01.000
2447,147602,Exxon,Exxon,Shop Rite,312 N Main St,E Madison St,St Martinville,"Lafayette, LA",LA,70582,30.125941865015,-91.828357279301,N,Y,Y,2021-09-03 23:04:07.675,2019-07-22 03:37:04.440,2019-07-22 03:37:04.440,2.99,5.0,4.3,1,2021-09-09 22:00:00.000,2021-09-10 19:23:01.000
2448,50894,Shell,Shell,,406 Ambassador Caffery Pkwy,E Amedee Dr,Scott,"Lafayette, LA",LA,70583,30.239934969133,-92.066443562508,N,Y,Y,2021-09-10 15:05:58.232,2021-09-10 13:09:20.416,2021-09-10 13:09:20.416,2.69,1.0,1.02,1,2021-09-09 23:00:00.000,2021-09-10 19:23:01.000
2449,116588,Chevron,Chevron,,206 N Ambassador Caffery Pkwy,Willow St,Scott,"Lafayette, LA",LA,70583-4939,30.242651955197,-92.067103385925,N,Y,Y,2021-09-01 20:06:01.005,,,,0.0,4.21,1,2021-09-09 23:00:00.000,2021-09-10 19:23:01.000
2450,154422,Chevron,Chevron,,1241 Tate Cove Rd,Whiteville Rd,Ville Platte,"Lafayette, LA",LA,70586,30.699706,-92.261021,Y,Y,Y,,,,,0.0,2.48,1,2021-09-09 21:00:00.000,2021-09-10 19:23:01.000
2451,159635,Conoco,Conoco,,4879 US-167,St Landry Hwy,Ville Platte,"Lafayette, LA",LA,70586,30.820098892467,-92.352329492569,Y,Y,Y,,,,,0.0,1.88,1,2021-09-04 01:00:00.000,2021-09-10 19:23:01.000
2452,128161,Shell,Shell,Y-Not Stop,214 Tate Cove Rd,LaSalle St,Ville Platte,"Lafayette, LA",LA,70586,30.68678166029,-92.26484388113,Y,Y,Y,2021-09-10 18:27:02.174,2021-09-10 18:27:02.174,2021-09-10 18:27:02.174,2.85,3.0,1.45,1,2021-09-09 21:00:00.000,2021-09-10 19:23:01.000
2453,89334,Chevron,Chevron,,2700 Ruth St,Patton Rd,Sulphur,Lake Charles,LA,70601,30.21297113503,-93.376611471176,Y,Y,Y,2020-10-13 21:16:44.202,2020-10-13 21:16:44.202,,2.99,5.0,1.6,1,2021-09-09 22:00:00.000,2021-09-10 19:23:01.000
2454,149617,Chevron,Chevron,,1717 Gerstner Memorial Dr,Legion St,Lake Charles,Lake Charles,LA,70601,30.21716,-93.179868,Y,Y,Y,,,,,0.0,1.01,1,2021-09-09 21:00:00.000,2021-09-10 19:23:01.000
2455,143112,Exxon,Exxon,Calcasieu Express,2530 Broad St,Gerstner Memorial Dr,Lake Charles,Lake Charles,LA,70601-4870,30.227289832982,-93.180719017982,Y,Y,Y,2020-10-20 15:22:37.486,2020-10-20 15:22:37.486,2020-10-20 15:22:37.486,2.79,3.0,19.42,2,2021-09-09 23:00:00.000,2021-09-10 19:23:01.000
2456,152561,Conoco,Conoco,Shop Rite,1110 E Prien Lake Rd,Enterprise Blvd,Lake Charles,Lake Charles,LA,70601,30.19801052846,-93.204628229141,Y,Y,Y,2020-09-10 12:36:31.603,2020-09-10 12:36:41.731,2020-09-10 12:36:32.510,2.99,5.0,1.01,1,2021-09-09 22:00:00.000,2021-09-10 19:23:01.000
2457,135546,Valero,Valero,Corner Store,3302 Ernest St,W Prien Lake Rd,Lake Charles,Lake Charles,LA,70601-8466,30.197996619183,-93.223478794097,Y,Y,Y,2020-08-31 01:42:44.670,2020-08-31 01:42:44.670,,,0.0,1.02,1,2021-09-09 22:00:00.000,2021-09-10 19:23:01.000
2458,173563,Shell,Shell,,2616 Lake St,18th St,Lake Charles,Lake Charles,LA,70601,30.20581332253,-93.232688158751,Y,Y,Y,2020-09-16 15:11:22.002,2020-09-16 15:11:22.002,2020-09-16 15:11:22.002,,0.0,1.5,1,2021-09-09 23:00:00.000,2021-09-10 19:23:01.000
2459,198680,Chevron,Chevron,Airport Corner Store,6878 Gauthier Rd,Big Lake Rd,Lake Charles,Lake Charles,LA,70605,30.138336,-93.282166,Y,Y,Y,,,,,0.0,,0,,2021-09-10 19:23:01.000
2460,114912,Smoke Shop Kwik Stop,,,4305 Lake St,Cricket St,Lake Charles,Lake Charles,LA,70605,30.180664134745,-93.232169151306,Y,Y,Y,,,,,0.0,1.13,1,2021-09-09 22:00:00.000,2021-09-10 19:23:01.000
2461,135985,Valero,Valero,,4452 Ryan St,W McNeese St,Lake Charles,Lake Charles,LA,70605,30.176402417445,-93.218720555305,Y,Y,Y,2020-10-11 19:57:23.393,2020-10-11 19:57:21.707,,,0.0,1.38,1,2021-09-09 23:00:00.000,2021-09-10 19:23:01.000
2462,149186,Conoco,Conoco,,Gulf Hwy,Arsene Lebleu Rd,Lake Charles,Lake Charles,LA,70607,30.06616,-93.213436,Y,Y,Y,,,,,0.0,19.54,2,2021-09-02 23:00:00.000,2021-09-10 19:23:01.000
2463,150335,Shell,Shell,,2587 Smith Road,Gerstner Memorial Blvd,Lake Charles,Lake Charles,LA,70607,30.168741,-93.180161,N,N,Y,2021-09-05 20:45:12.911,2021-09-05 20:45:14.153,,,0.0,1.1,1,2021-09-09 21:00:00.000,2021-09-10 19:23:01.000
2464,154797,CITGO,CITGO,,108 LA-397,I-10  ,Lake Charles,Lake Charles,LA,70615,30.238972,-93.129752,Y,Y,Y,2020-11-11 11:28:26.976,2020-11-11 11:28:26.977,2020-11-11 11:28:26.977,,0.0,8.03,2,2021-09-09 06:00:00.000,2021-09-10 19:23:01.000
2465,171888,Chaisson Grocery,,,2198 Claude Hebert Rd,Chaisson Rd,Lake Charles,Lake Charles,LA,70615,30.29051,-93.085517,Y,Y,Y,,,,,0.0,,0,,2021-09-10 19:23:01.000
2466,95960,Conoco,Conoco,Brookshire Bros,820 E 1st St,Country Club Cir,DeRidder,Lake Charles,LA,70634,30.846568541784,-93.270256519318,Y,Y,Y,2020-10-03 13:08:43.937,2020-10-03 13:08:43.941,,,0.0,1.02,1,2021-09-09 06:00:00.000,2021-09-10 19:23:01.000
2467,117651,CITGO,CITGO,,988 W 1st St,Texas St,DeRidder,Lake Charles,LA,70634,30.846623808799,-93.29690694809,Y,Y,Y,2020-10-11 18:13:34.940,2020-10-11 18:13:34.941,2020-10-11 18:13:34.940,,0.0,0.42,1,2021-09-09 22:00:00.000,2021-09-10 19:23:01.000
2468,110978,26 Express,,,215 LA-26,Pruitt Rd,DeRidder,Lake Charles,LA,70634,30.823492,-93.239036,Y,Y,Y,,,,,0.0,1.19,1,2021-09-09 20:00:00.000,2021-09-10 19:23:01.000
2469,201512,Buchiki's,,,5912 W Main St,Martin Luther King Blvd,Houma,Lake Charles,LA,70634,29.634994,-90.760006,Y,Y,N,2021-09-09 15:31:08.150,2021-09-09 15:31:14.297,2021-09-09 15:31:12.584,,0.0,1.98,1,2021-09-09 23:00:00.000,2021-09-10 19:23:01.000
2470,167968,Foreman's Market,,,8236 LA-113,LA-394,Dry Creek,Lake Charles,LA,70637,30.671842837769,-93.045887053013,Y,Y,Y,,,,,0.0,1.02,1,2021-08-29 19:00:00.000,2021-09-10 19:23:01.000
2471,151436,Chevron,Exxon,,4899   LA-10, LA-3206,Elizabeth,Lake Charles,LA,70638,30.874043,-92.789207,Y,Y,Y,,,,3.03,5.0,6.38,2,2021-09-06 23:00:00.000,2021-09-10 19:23:01.000
2472,167107,Valero,Valero,,8672 Hwy 165,7th Ave,Oberlin,Lake Charles,LA,70655,30.622499,-92.761527,Y,Y,Y,2020-11-17 22:26:31.270,2020-11-17 22:26:31.271,,,0.0,1.0,1,2021-09-09 20:00:00.000,2021-09-10 19:23:01.000
2473,172072,Craven's Handy Stop,,,9242 LA-10,LA-339,Pitkin,"Alexandria, LA",LA,70656,30.966322,-93.035976,Y,Y,Y,,,,,0.0,2.94,1,2021-09-09 14:00:00.000,2021-09-10 19:23:01.000
2474,152856,Lambright's,,,13496 Pitkin Hwy,Par Rd 528,Pitkin,"Alexandria, LA",LA,70656,30.93223,-92.916417,Y,Y,Y,,,,,0.0,1.15,1,2021-09-09 14:00:00.000,2021-09-10 19:23:01.000
2475,141339,Conoco,Conoco,Brookshire Bros,1612 Ruth St,W Parish Rd,Sulphur,Lake Charles,LA,70663,30.224700353484,-93.376021385193,Y,Y,Y,2021-09-06 11:18:34.700,2020-10-08 19:42:54.983,,,0.0,41.4,3,2021-09-09 22:00:00.000,2021-09-10 19:23:01.000
2476,104444,Murphy USA,Murphy USA,,527 N Cities Service Hwy,Summerwood Dr,Sulphur,Lake Charles,LA,70663,30.23318,-93.326206,Y,Y,Y,2020-10-20 15:09:44.693,2020-10-20 15:09:44.704,2020-08-27 20:44:24.000,2.69,1.0,3.12,1,2021-09-09 23:00:00.000,2021-09-10 19:23:01.000
2477,201890,Exxon,Exxon,,4001 S Beglis Pkwy,Ravia Rd,Sulphur,Lake Charles,LA,70665,30.193156,-93.357762,Y,Y,Y,,,,,0.0,,0,,2021-09-10 19:23:01.000
2478,201075,Phillips 66,Phillips 66,Phillips Food Mart,105 Phillips Rd,Davis Rd,Westlake,Lake Charles,LA,70669,30.284724,-93.250186,Y,Y,Y,2020-11-16 13:41:05.437,2020-11-16 13:41:04.372,,,0.0,1.0,1,2021-09-09 23:00:00.000,2021-09-10 19:23:01.000
2479,133590,Landry's Market Deli,,,21470 Old LA-16,Andrews Rd,Denham Springs,Baton Rouge,LA,70706,30.382033904486,-90.867217183113,N,N,Y,2021-08-31 18:27:34.064,2021-08-31 18:27:34.063,,,0.0,1.33,1,2021-09-09 22:00:00.000,2021-09-10 19:23:01.000
2480,108384,Shell,Exxon,Good to Go,9171 LA-67  ,Haynes Street,Clinton,Baton Rouge,LA,70722,30.846034292332,-91.001343727112,Y,Y,N,2021-09-06 14:49:36.428,2021-09-06 14:49:37.583,2021-09-05 16:15:55.488,,0.0,3.48,1,2021-09-09 21:00:00.000,2021-09-10 19:23:01.000
2481,86248,Exxon,Exxon,On The Run 3,31752 LA-16,Lockhart Rd,Denham Springs,Baton Rouge,LA,70726-1443,30.528350263835,-90.955789089203,Y,Y,N,2021-09-06 17:05:27.816,2021-09-06 17:05:27.817,2021-09-06 03:06:18.926,2.69,1.0,1.7,1,2021-09-09 23:00:00.000,2021-09-10 19:23:01.000
2482,86284,Exxon,Exxon,,1004 Florida Blvd,Don Ave,Denham Springs,Baton Rouge,LA,70726,30.473680177838,-90.962505340576,N,N,Y,2021-09-01 15:55:01.224,2021-09-01 15:55:01.224,,,0.0,1.35,1,2021-09-09 22:00:00.000,2021-09-10 19:23:01.000
2483,129345,Rushing Corner,,,2366 S Range Ave,Rushing Rd,Denham Springs,Baton Rouge,LA,70726,30.457494,-90.956138,Y,Y,N,2021-09-06 15:31:52.585,2021-09-06 15:31:52.585,2021-09-06 15:31:52.585,2.59,1.0,1.44,1,2021-09-09 23:00:00.000,2021-09-10 19:23:01.000
2484,153357,Shell,Shell,,23865 LA-16,S Point Dr,Denham Springs,Baton Rouge,LA,70726,30.410422,-90.912884,Y,Y,N,2021-09-04 18:34:35.910,2021-09-04 18:34:35.910,2021-09-04 18:34:35.910,3.05,5.0,5.18,2,2021-09-09 22:00:00.000,2021-09-10 19:23:01.000
2485,83587,Murphy Express,Murphy Express,,130 S Airline Hwy,Cornerview St,Gonzales,Baton Rouge,LA,70737,30.231969,-90.907057,N,Y,N,2021-09-09 02:01:09.400,2021-09-08 00:03:21.830,2021-09-09 02:01:10.899,2.72,2.0,1.04,1,2021-09-09 23:00:00.000,2021-09-10 19:23:01.000
2486,50779,Shell,Shell,Cracker Barrel,19100 Greenwell Springs,Magnolia Bridge Rd,Greenwell Springs,Baton Rouge,LA,70739,30.534209250473,-90.988147258759,Y,Y,Y,2021-09-10 12:24:33.333,2021-09-10 12:24:36.406,2021-09-10 12:24:35.715,2.65,1.0,4.45,1,2021-09-09 23:00:00.000,2021-09-10 19:23:01.000
2487,150109,Billy's,,,  US-190,Florida St,Krotz Springs,"Lafayette, LA",LA,70750,30.541814,-91.760204,N,Y,N,2021-09-07 15:41:20.631,2021-09-07 15:41:24.627,2021-09-07 15:41:23.846,,0.0,1.15,1,2021-09-09 20:00:00.000,2021-09-10 19:23:01.000
2488,162463,Alma Plantation Store,,,4389 Alma Rd,LA-416,New Roads,Baton Rouge,LA,70752,30.59956,-91.39004,Y,Y,Y,2021-09-06 22:10:04.818,2021-09-06 22:10:06.431,2021-09-06 22:10:05.964,,0.0,20.83,2,2021-09-01 14:00:00.000,2021-09-10 19:23:01.000
2489,160010,Valero,Valero,Livonia Quick Stop,7883 Airline Hwy,Maringouin Rd,Livonia,Baton Rouge,LA,70755,30.555174873206,-91.565873622894,N,Y,N,2021-09-08 22:32:58.598,2021-09-03 00:56:10.752,2021-09-01 20:01:10.660,,0.0,1.51,1,2021-09-09 22:00:00.000,2021-09-10 19:23:01.000
2490,150354,Maringouin Jr Mart,,,77100 Landry Dr,Hwy 77,Maringouin,Baton Rouge,LA,70757,30.492549,-91.518298,Y,Y,N,2021-09-04 17:57:43.758,2021-09-02 13:15:57.289,2021-09-03 03:34:13.900,,0.0,8.27,2,2021-09-09 20:00:00.000,2021-09-10 19:23:01.000
2491,158644,Chevron,Chevron,,  LA-1,Hospital Rd,New Roads,Baton Rouge,LA,70760,30.704893,-91.477082,Y,Y,Y,2021-09-04 12:51:20.253,2021-09-04 12:51:23.421,2021-09-01 19:55:04.522,2.99,5.0,11.2,2,2021-09-09 03:00:00.000,2021-09-10 19:23:01.000
2492,156101,Texaco,Texaco,,58726 Belleview Dr,Earle Dr,Plaquemine,Baton Rouge,LA,70764,30.272224,-91.240354,N,Y,Y,2021-09-05 20:59:28.163,2021-09-05 20:59:29.237,,,0.0,0.85,1,2021-09-09 22:00:00.000,2021-09-10 19:23:01.000
2493,50878,Exxon,Exxon,,24505 LA-1 S,LA-75,Plaquemine,Baton Rouge,LA,70765,30.2821191067,-91.2284502987,N,Y,Y,2021-09-05 15:19:37.062,2021-09-05 14:22:25.887,,,0.0,0.77,1,2021-09-09 23:00:00.000,2021-09-10 19:23:01.000
2494,133355,Exxon,Exxon,LA EXPRESS FOOD STOR,222 LA-415,Sharlot Blvd,Port Allen,Baton Rouge,LA,70767,30.452148215743,-91.246020197868,Y,Y,Y,2021-09-06 17:29:10.968,2021-09-06 17:29:13.301,2021-09-05 15:24:02.552,2.89,4.0,1.02,1,2021-09-09 23:00:00.000,2021-09-10 19:23:01.000
2495,153491,TMI Fuel Stop,,,524 US-190,N River Rd,Port Allen,Baton Rouge,LA,70767,30.507444,-91.207681,N,N,N,2021-09-07 23:10:05.786,2021-09-07 23:10:05.786,2021-09-07 23:10:05.786,,0.0,1.04,1,2021-09-09 19:00:00.000,2021-09-10 19:23:01.000
2496,175531,RaceTrac,RaceTrac,2352,16300 Airline Hwy,LA-73,Prairieville,Baton Rouge,LA,70769,30.304535,-90.973207,Y,Y,Y,2021-09-09 23:59:26.435,2021-09-09 23:59:29.325,2021-09-09 23:59:28.597,2.73,2.0,1.23,1,2021-09-09 23:00:00.000,2021-09-10 19:23:01.000
2497,186783,Valero,,Corner Store,14001 LA-73,I-10,Prairieville,Baton Rouge,LA,70769,30.271504400475,-90.984912514687,Y,Y,Y,2021-09-09 12:51:18.956,2021-09-09 12:51:18.956,2021-09-09 12:51:18.956,,0.0,0.67,1,2021-09-09 23:00:00.000,2021-09-10 19:23:01.000
2498,108408,Exxon,,Jetts Food Mart,3566 E Main St,LA-19,Slaughter,Baton Rouge,LA,70777,30.716330159118,-91.143071651459,Y,Y,Y,2021-09-09 18:19:41.712,2021-09-09 18:19:42.678,2021-09-09 18:19:42.062,,0.0,0.42,1,2021-09-09 22:00:00.000,2021-09-10 19:23:01.000
2499,152795,Circle K,,,32150 Walker Rd N,Courtney Rd,Walker,Baton Rouge,LA,70785,30.534984,-90.858719,Y,Y,N,2021-09-08 20:21:08.814,2021-09-08 20:21:13.935,2021-09-07 00:40:09.765,2.79,3.0,8.5,2,2021-09-09 23:00:00.000,2021-09-10 19:23:01.000
2500,50699,Shell,Shell,Circle K,5505 Airline Hwy,McClelland Dr,Baton Rouge,Baton Rouge,LA,70805,30.506186421905,-91.135540008545,Y,Y,Y,,,,,0.0,1.55,1,2021-09-09 23:00:00.000,2021-09-10 19:23:01.000
2501,113852,Mobil Truck Stop,Mobil,Airline Mobil,6305 Airline Hwy,St Gerard Ave,Baton Rouge,Baton Rouge,LA,70805-3210,30.497549,-91.127284,Y,Y,Y,2021-09-07 19:06:25.780,2021-09-07 19:06:25.780,2021-09-07 19:06:25.780,,0.0,1.47,1,2021-09-09 23:00:00.000,2021-09-10 19:23:01.000
2502,69024,Marathon,CITGO,Birdie's,483 Belle Terre Blvd,Fairway Dr,Laplace,New Orleans,LA,70068,30.086288,-90.50357,N,N,N,2021-09-04 16:42:44.687,2021-09-04 16:42:45.553,2021-09-04 16:42:45.203,,0.0,1.59,1,2021-09-09 23:00:00.000,2021-09-10 19:23:01.000
2503,56138,Shell,Shell,,2145 Barataria Blvd,Cousins Blvd,Marrero,New Orleans,LA,70072,29.865618962011,-90.097246170044,N,N,N,2021-09-05 20:26:22.536,2021-09-05 20:26:24.651,2021-09-05 20:26:23.997,2.99,5.0,0.78,1,2021-09-09 23:00:00.000,2021-09-10 19:23:01.000
2504,72497,Shell,Shell,Brother's Food Mart,2698 Barataria Blvd,Ames Blvd,Marrero,New Orleans,LA,70072,29.852996,-90.109146,Y,Y,Y,2021-09-07 00:15:24.736,2021-09-07 00:15:28.365,,2.99,5.0,1.42,1,2021-09-09 23:00:00.000,2021-09-10 19:23:01.000
2505,74278,Stop-N-Go,,,3751 Barataria Blvd,Dolores Dr,Marrero,New Orleans,LA,70072,29.835785878161,-90.11604309082,N,N,Y,2021-09-08 16:40:55.799,2021-09-08 16:40:56.855,,,0.0,9.45,2,2021-09-09 23:00:00.000,2021-09-10 19:23:01.000
2506,119015,Fina,,,6335 LA-18,MBC Plantation Rd,St James,New Orleans,LA,70086,30.007527870809,-90.839005708694,Y,Y,Y,,,,,0.0,0.97,1,2021-09-08 19:00:00.000,2021-09-10 19:23:01.000
2507,107570,RaceTrac,RaceTrac,482,521 Almedia Rd,Airline Dr,St Rose,New Orleans,LA,70087,29.971925565721,-90.307402610779,Y,Y,Y,2021-09-09 22:05:46.750,2021-09-09 22:05:47.687,2021-09-09 22:05:47.268,2.69,1.0,1.02,1,2021-09-09 23:00:00.000,2021-09-10 19:23:01.000
2508,163071,Shell,Shell,,River Rd,Bernard Ave,St Rose,New Orleans,LA,70087,29.955941,-90.290883,Y,Y,Y,,,,,0.0,1.02,1,2021-09-09 23:00:00.000,2021-09-10 19:23:01.000
2509,158168,Conoco,Conoco,Corner Dr Inn,2105 LA-20,LA-18,North Vacherie,New Orleans,LA,70090,30.007050944931,-90.729818344116,Y,Y,Y,,,,,0.0,1.0,1,2021-09-09 22:00:00.000,2021-09-10 19:23:01.000
2510,199888,Ellzey Food Mart,,,42991 LA-23,Sooner Ln,Venice,New Orleans,LA,70091,29.272736,-89.353094,Y,Y,Y,,,,,0.0,27.42,2,2021-09-09 14:00:00.000,2021-09-10 19:23:01.000
2511,156870,Discount Max,,,142 W Tish Dr,US-90,Avondale,New Orleans,LA,70094,29.910714,-90.206361,N,N,Y,2021-09-01 00:10:22.575,2021-09-01 00:10:22.575,,,0.0,2.9,1,2021-09-09 19:00:00.000,2021-09-10 19:23:01.000
2512,50852,Shell,Shell,,600 S Carrollton,St Charles Ave,New Orleans,New Orleans,LA,70118,29.943205,-90.134274,N,N,N,2021-08-30 15:44:27.717,2021-09-05 20:41:22.917,2021-08-30 15:44:27.717,,0.0,1.52,1,2021-09-09 17:00:00.000,2021-09-10 19:23:01.000
2513,82528,Shell,Shell,,3101 S Carrollton Ave,Earhart Blvd,New Orleans,New Orleans,LA,70118,29.961115972062,-90.114498138428,N,N,Y,2021-08-27 22:28:25.487,2021-09-01 21:39:42.089,,3.00,5.0,1.2,1,2021-09-09 23:00:00.000,2021-09-10 19:23:01.000
2514,123832,Delta,Delta,,3400 S Claiborne Ave,Louisania Ave,New Orleans,New Orleans,LA,70118,29.940814987615,-90.096586346626,N,N,Y,2021-08-30 18:59:38.235,2021-09-01 21:38:49.121,,,0.0,1.0,1,2021-09-09 23:00:00.000,2021-09-10 19:23:01.000
2515,50862,Shell,Shell,,2035 Gentilly Blvd,Paris Ave,New Orleans,New Orleans,LA,70119,29.990001931206,-90.072750373016,N,N,Y,2021-08-31 17:42:17.538,2021-09-02 00:10:37.523,2020-11-08 06:06:32.906,,0.0,1.34,1,2021-09-09 23:00:00.000,2021-09-10 19:23:01.000
2516,85853,Jefferson Fast Stop,,,3220 Jefferson Hwy,Shrewsbury Ct,Jefferson,New Orleans,LA,70121,29.962849,-90.158438,Y,Y,N,2021-09-05 13:35:53.221,2021-09-05 13:35:53.221,2021-09-05 13:35:53.221,,0.0,1.61,1,2021-09-09 22:00:00.000,2021-09-10 19:23:01.000
2517,56112,Shell,Shell,,1700 Hickory Ave,Citrus Rd,Harahan,New Orleans,LA,70123,29.963307263729,-90.205749571323,Y,Y,N,2021-09-10 15:05:32.147,2021-09-10 15:05:32.147,2021-09-03 12:44:20.918,2.93,4.0,10.28,2,2021-09-09 23:00:00.000,2021-09-10 19:23:01.000
2518,96855,Discount Gas,,,3305 S Broad St,Washington Ave,New Orleans,New Orleans,LA,70125,29.950943532464,-90.101124644279,Y,Y,Y,2021-09-09 21:20:49.190,2021-09-09 21:20:50.096,,,0.0,1.0,1,2021-09-09 23:00:00.000,2021-09-10 19:23:01.000
2519,98957,Discount Corner,,,4101 S Claiborne Ave,General Taylor,New Orleans,New Orleans,LA,70125,29.94085781062,-90.100228817127,Y,Y,Y,2021-09-08 14:46:25.543,2021-09-08 14:46:25.938,,2.99,5.0,1.42,1,2021-09-09 23:00:00.000,2021-09-10 19:23:01.000
2520,50853,Shell,Shell,,6201 S Claiborne Ave,Calhoun St,New Orleans,New Orleans,LA,70125,29.946121,-90.11334,Y,Y,N,2021-09-08 18:45:51.128,2021-09-08 18:45:51.128,2021-09-08 15:28:59.953,,0.0,10.23,2,2021-09-09 23:00:00.000,2021-09-10 19:23:01.000
2521,170076,Exxon,Exxon,Louisa Xpress,4301 Louisa Dr,Chef Menteur Hwy,Gentilly,New Orleans,LA,70126,30.005936,-90.036049,N,Y,Y,2021-09-03 13:05:02.141,2021-09-03 13:05:04.095,,,0.0,2.83,1,2021-09-09 23:00:00.000,2021-09-10 19:23:01.000
2522,121564,Big Easy Travel Plaza,,,5000 Old Gentilly Rd,Louisa St,New Orleans,New Orleans,LA,70126-5005,30.004697252399,-90.032680034637,N,N,N,2021-09-01 07:31:52.134,2021-09-01 07:31:49.467,2021-09-01 07:31:51.843,,0.0,5.27,2,2021-09-09 21:00:00.000,2021-09-10 19:23:01.000
2523,149146,Downman Center,,,7200 Downman Rd,Dorothea St,New Orleans,New Orleans,LA,70126,30.025333,-90.024429,N,Y,N,2021-09-01 23:59:55.659,2021-09-01 23:59:55.658,2021-09-01 23:59:55.654,,0.0,1.0,1,2021-09-09 23:00:00.000,2021-09-10 19:23:01.000
2524,174811,Fuel Express Mart,,,6501 I-10 Service Rd,Lamb Rd,New Orleans,New Orleans,LA,70126,30.026959,-90.016077,N,N,N,2021-09-01 15:39:49.996,2021-09-01 15:39:50.774,2021-09-01 15:39:50.364,,0.0,0.59,1,2021-09-09 22:00:00.000,2021-09-10 19:23:01.000
2525,97787,Chevron,Chevron,,10422 Chef Menteur Hwy,Coronado Dr,New Orleans,New Orleans,LA,70127-4216,30.019428,-89.9641,Y,Y,Y,2021-09-06 18:58:42.451,2021-09-06 18:58:42.452,2021-09-06 18:58:42.443,,0.0,1.2,1,2021-09-09 23:00:00.000,2021-09-10 19:23:01.000
2526,69198,Paradise Truck Stop,Texaco,,2101 Paris Rd,Bayou Bienvenue,New Orleans,New Orleans,LA,70129,29.985765,-89.94434,Y,Y,Y,,2021-08-30 23:44:06.876,,,0.0,0.33,1,2021-09-09 22:00:00.000,2021-09-10 19:23:01.000
2527,50901,Jesters Court,,,501 St Mary St,Ridgefield Rd,Thibodaux,New Orleans,LA,70301,29.795996,-90.826962,Y,Y,Y,2021-09-03 20:36:13.420,,,,0.0,1.79,1,2021-09-09 23:00:00.000,2021-09-10 19:23:01.000
2528,134831,Chevron,Chevron,,512 LA-20,Perez Ln,Chackbay,New Orleans,LA,70301,29.87662,-90.80465,N,Y,Y,2021-09-02 11:57:03.631,,,,0.0,3.18,1,2021-09-09 20:00:00.000,2021-09-10 19:23:01.000
2529,134373,Chevron,Chevron,Shop Rite  51,310 East Bayou Rd,Davis Dr,Thibodaux,New Orleans,LA,70301,29.7985202,-90.8087589,Y,N,N,2021-09-03 20:37:19.987,2021-09-02 11:29:12.480,2021-09-02 11:29:12.480,2.93,4.0,1.06,1,2021-09-09 18:00:00.000,2021-09-10 19:23:01.000
2530,149440,Mikes Country Store,,,2999 Choctaw Rd,Delatte Rd,Thibodaux,New Orleans,LA,70301,29.839928,-90.694869,Y,Y,Y,2021-09-03 19:53:16.962,2021-09-03 19:53:16.962,,,0.0,1.88,1,2021-09-07 19:00:00.000,2021-09-10 19:23:01.000
2531,148556,Shell,Shell,,1809 LA-3185,Talbot Ave,Thibodaux,New Orleans,LA,70301,29.784483511011,-90.85954874754,Y,Y,Y,2021-09-05 23:19:38.874,2021-09-05 23:19:39.746,,2.99,5.0,3.58,1,2021-09-09 23:00:00.000,2021-09-10 19:23:01.000
2562,50733,CITGO,CITGO,Hollywood Truckstop,2051 US-90 E ,Arlington Dr,Berwick,New Orleans,LA,70342,29.686822434566,-91.250681877136,Y,Y,Y,2021-09-10 12:12:50.238,2021-09-10 12:12:50.238,2021-09-10 12:12:50.238,2.94,4.0,10.73,2,2021-09-09 22:00:00.000,2021-09-10 19:23:01.000
2563,50735,Exxon,Exxon,Jubilee,4899 LA-182 E ,Bowman St,Berwick,New Orleans,LA,70342,29.693421,-91.22328,Y,Y,N,2021-09-09 18:01:57.477,2021-09-09 18:01:57.478,2021-09-06 19:55:48.917,,0.0,1.8,1,2021-09-09 23:00:00.000,2021-09-10 19:23:01.000
2564,50734,Gulf,Gulf,Ganaway's  4,621 California St,5th St,Berwick,New Orleans,LA,70342,29.693389,-91.221349,N,Y,Y,2021-09-06 19:55:26.179,2021-09-06 19:55:27.013,2019-08-19 17:03:31.000,,0.0,2.0,1,2021-09-09 23:00:00.000,2021-09-10 19:23:01.000
2565,155512,Exxon,Exxon,Jack's Exxon,14807 W Main St,W 68th St,Cut Off,Baton Rouge,LA,70345,29.522113524579,-90.334635078907,N,N,Y,2021-09-05 02:39:09.628,2021-09-05 02:39:09.628,,,0.0,1.01,1,2021-09-08 15:00:00.000,2021-09-10 19:23:01.000
2566,135273,Chevron,Chevron,,16860 LA-3235,LA-3162,Galliano,New Orleans,LA,70354,29.46622,-90.32479,N,N,Y,2021-09-10 16:56:53.695,2021-09-10 16:56:53.695,,,0.0,,0,,2021-09-10 19:23:01.000
2567,135274,Texaco,Texaco,,352 LA-3162,LA-3235,Galliano,New Orleans,LA,70354,29.468785477447,-90.324032306671,N,N,N,2021-09-02 19:23:53.055,2021-09-02 19:23:53.055,2021-09-02 19:23:53.055,,0.0,1.12,1,2021-09-09 22:00:00.000,2021-09-10 19:23:01.000
2568,147551,Shell,Shell,T-Pops Mart,705 N Alex Plaisance Blvd,Dursette St,Golden Meadow,New Orleans,LA,70357,29.393030262598,-90.274851322174,N,N,N,2021-09-10 17:03:10.385,2021-09-10 17:03:10.385,2021-09-10 17:03:10.386,,0.0,2.02,1,2021-09-08 15:00:00.000,2021-09-10 19:23:01.000
2569,50790,Shell,Shell,,1280 St Charles St,Mystic Dr,Houma,New Orleans,LA,70360,29.587204,-90.744139,N,N,Y,2021-09-06 14:56:16.483,2021-09-06 14:56:17.932,,,0.0,1.87,1,2021-09-09 21:00:00.000,2021-09-10 19:23:01.000
2570,50792,Shell,Shell,,4900 Little Bayou Black Dr,Venture Blvd,Houma,New Orleans,LA,70360,29.600476387101,-90.760588645935,N,Y,N,2021-09-06 18:57:03.482,2021-09-05 19:03:29.302,2021-09-03 02:06:51.957,3.05,5.0,1.5,1,2021-09-09 23:00:00.000,2021-09-10 19:23:01.000
2571,171707,Donald's Service,,,6716 W Main St,Wayne Ave,Houma,New Orleans,LA,70360,29.614534,-90.74625,Y,Y,Y,2021-09-07 16:13:38.782,2021-09-07 16:13:38.782,,,0.0,1.02,1,2021-09-09 21:00:00.000,2021-09-10 19:23:01.000
2572,150397,Rocko's Food & Fuel,Exxon,,2119 Bayou Black Dr,St Charles St,Houma,New Orleans,LA,70360,29.573771,-90.748127,Y,N,N,2021-09-08 16:43:46.196,2021-09-05 22:37:57.652,2021-09-05 22:37:57.208,,0.0,1.05,1,2021-09-09 19:00:00.000,2021-09-10 19:23:01.000
2573,120185,Murphy Express,Murphy Express,,1841 Martin Luther King Blvd,Savanne Rd,Houma,New Orleans,LA,70360,29.626791,-90.761939,N,N,N,2021-09-08 17:45:20.099,2021-09-08 17:45:20.099,2021-09-08 17:45:20.099,,0.0,0.5,1,2021-09-09 18:00:00.000,2021-09-10 19:23:01.000
2574,145235,Conoco,Conoco,J & N Truck Stop,9706 E Main St,Clendenning Rd,Houma,New Orleans,LA,70363,29.587116912233,-90.668706893921,Y,N,N,2021-09-08 14:01:42.488,2021-09-07 01:12:59.083,2021-09-06 15:30:06.555,,0.0,1.66,1,2021-09-09 19:00:00.000,2021-09-10 19:23:01.000
2575,174815,Chevron,Chevron,,2073 Grand Caillou Rd,W Woodlawn Ranch Rd,Houma,New Orleans,LA,70363,29.554588,-90.679731,N,N,N,2021-09-03 23:02:32.734,2021-09-03 23:02:34.234,2021-09-03 23:02:33.785,,0.0,2.27,1,2021-09-09 23:00:00.000,2021-09-10 19:23:01.000
2576,166358,Ashland Mini Mart,,,3729 Grand Caillou Rd,Graham Dr,Houma,New Orleans,LA,70363,29.504771,-90.67589,Y,Y,Y,2021-09-03 02:14:17.957,,,,0.0,1.02,1,2021-09-09 23:00:00.000,2021-09-10 19:23:01.000
2577,142040,Shop Rite,,,1037 Grand Caillou Rd,Elysian Dr,Houma,New Orleans,LA,70363,29.5804358,-90.6921256,N,N,Y,2021-09-04 17:19:10.891,2021-09-04 17:19:10.891,,,0.0,1.02,1,2021-09-09 23:00:00.000,2021-09-10 19:23:01.000
2578,134641,Texaco,Texaco,,551 South Van Ave,Industrial Blvd,Houma,New Orleans,LA,70363,29.577002837331,-90.710238218308,N,N,N,2021-09-03 12:27:25.822,2021-09-03 12:27:25.822,2021-09-03 12:27:25.822,,0.0,5.93,2,2021-09-09 21:00:00.000,2021-09-10 19:23:01.000
2579,134182,CITGO,CITGO,Prospect Station,1444 Prospect Blvd,Coteau Rd,Houma,New Orleans,LA,70364,29.608847,-90.66787,N,N,N,2021-09-03 21:42:06.028,2021-09-03 21:42:06.028,2021-09-03 21:42:06.028,,0.0,0.65,1,2021-09-09 23:00:00.000,2021-09-10 19:23:01.000
2580,132001,BJ's Country Corner,,,6460 W Main St,Ziegler Ave,Houma,New Orleans,LA,70364,29.62149158787,-90.749484300613,N,N,Y,2021-09-04 22:13:19.227,2021-09-04 22:13:19.228,,,0.0,1.02,1,2021-09-09 22:00:00.000,2021-09-10 19:23:01.000
2581,165975,BJ's Country Corner,,,2846 Bayou Blue Rd,Country Estates Dr,Houma,New Orleans,LA,70364,29.675229,-90.732265,N,N,Y,2021-09-06 14:47:48.499,2021-09-06 14:47:48.499,,,0.0,0.88,1,2021-09-09 21:00:00.000,2021-09-10 19:23:01.000
2582,117820,Quick Zone,,,1422 W Tunnel Blvd,S Hollywood Rd,Houma,New Orleans,LA,70364,29.605261857925,-90.74565410614,Y,Y,Y,2021-09-07 11:41:35.239,2021-09-07 11:41:35.769,,,0.0,2.62,1,2021-09-09 23:00:00.000,2021-09-10 19:23:01.000
